{"schemaVersion":"1","placesArtifactVersion":"places-jabodetabek-20260718-v1","networkArtifactVersion":"bus-transjakarta-20260630-v2","entries":[{"placeId":"place:transit-ref:place:standalone:gtfs:transjakarta:stop:B07423P","displayLabel":"1 Park","aliases":[],"disambiguatingContext":"Halte bus · Jakarta","resultKind":"TransitPlace","transitPlaceId":"place:standalone:gtfs:transjakarta:stop:B07423P","representativeLocation":{"_tag":"Placed","latitude":-6.24587,"longitude":106.78648}},{"placeId":"place:transit-ref:place:standalone:gtfs:transjakarta:stop:B07010P","displayLabel":"101 Urban Jakarta","aliases":[],"disambiguatingContext":"Halte bus · Jakarta","resultKind":"TransitPlace","transitPlaceId":"place:standalone:gtfs:transjakarta:stop:B07010P","representativeLocation":{"_tag":"Placed","latitude":-6.157649,"longitude":106.894606}},{"placeId":"place:transit-ref:place:standalone:gtfs:transjakarta:stop:B00001P","displayLabel":"18 Office Park","aliases":[],"disambiguatingContext":"Halte bus · Jakarta","resultKind":"TransitPlace","transitPlaceId":"place:standalone:gtfs:transjakarta:stop:B00001P","representativeLocation":{"_tag":"Placed","latitude":-6.299146,"longitude":106.8321}},{"placeId":"place:transit-ref:place:standalone:gtfs:transjakarta:stop:B00002P","displayLabel":"ABA","aliases":[],"disambiguatingContext":"Halte bus · Jakarta","resultKind":"TransitPlace","transitPlaceId":"place:standalone:gtfs:transjakarta:stop:B00002P","representativeLocation":{"_tag":"Placed","latitude":-6.194149,"longitude":106.83939}},{"placeId":"place:transit-ref:place:standalone:gtfs:transjakarta:stop:B00003P","displayLabel":"Acacia Residence","aliases":[],"disambiguatingContext":"Halte bus · Jakarta","resultKind":"TransitPlace","transitPlaceId":"place:standalone:gtfs:transjakarta:stop:B00003P","representativeLocation":{"_tag":"Placed","latitude":-6.263358,"longitude":106.75675}},{"placeId":"place:transit-ref:place:standalone:gtfs:transjakarta:stop:B00004P","displayLabel":"ACC Simatupang","aliases":[],"disambiguatingContext":"Halte bus · Jakarta","resultKind":"TransitPlace","transitPlaceId":"place:standalone:gtfs:transjakarta:stop:B00004P","representativeLocation":{"_tag":"Placed","latitude":-6.304475,"longitude":106.84858}},{"placeId":"place:transit-ref:place:standalone:gtfs:transjakarta:stop:B07988P","displayLabel":"ACD","aliases":[],"disambiguatingContext":"Halte bus · Jakarta","resultKind":"TransitPlace","transitPlaceId":"place:standalone:gtfs:transjakarta:stop:B07988P","representativeLocation":{"_tag":"Placed","latitude":-6.129905,"longitude":106.645687}},{"placeId":"place:transit-ref:place:standalone:gtfs:transjakarta:stop:B00005P","displayLabel":"ACE Hardware","aliases":[],"disambiguatingContext":"Halte bus · Jakarta","resultKind":"TransitPlace","transitPlaceId":"place:standalone:gtfs:transjakarta:stop:B00005P","representativeLocation":{"_tag":"Placed","latitude":-6.387532,"longitude":106.82738}},{"placeId":"place:transit-ref:place:standalone:gtfs:transjakarta:stop:B00006P","displayLabel":"ACE Hardware Kelapa Gading","aliases":[],"disambiguatingContext":"Halte bus · Jakarta","resultKind":"TransitPlace","transitPlaceId":"place:standalone:gtfs:transjakarta:stop:B00006P","representativeLocation":{"_tag":"Placed","latitude":-6.157009,"longitude":106.89905}},{"placeId":"place:transit-ref:place:standalone:gtfs:transjakarta:stop:B07982P","displayLabel":"ACS","aliases":[],"disambiguatingContext":"Halte bus · Jakarta","resultKind":"TransitPlace","transitPlaceId":"place:standalone:gtfs:transjakarta:stop:B07982P","representativeLocation":{"_tag":"Placed","latitude":-6.129259,"longitude":106.647884}},{"placeId":"place:transit-ref:place:standalone:gtfs:transjakarta:stop:B00008P","displayLabel":"Adam Malik 1","aliases":[],"disambiguatingContext":"Halte bus · Jakarta","resultKind":"TransitPlace","transitPlaceId":"place:standalone:gtfs:transjakarta:stop:B00008P","representativeLocation":{"_tag":"Placed","latitude":-6.236396,"longitude":106.74776}},{"placeId":"place:transit-ref:place:standalone:gtfs:transjakarta:stop:B00010P","displayLabel":"AEON Mall","aliases":[],"disambiguatingContext":"Halte bus · Jakarta","resultKind":"TransitPlace","transitPlaceId":"place:standalone:gtfs:transjakarta:stop:B00010P","representativeLocation":{"_tag":"Placed","latitude":-6.171923,"longitude":106.95283}},{"placeId":"place:transit-ref:place:standalone:gtfs:transjakarta:stop:B00011P","displayLabel":"Agrowisata Cilangkap","aliases":[],"disambiguatingContext":"Halte bus · Jakarta","resultKind":"TransitPlace","transitPlaceId":"place:standalone:gtfs:transjakarta:stop:B00011P","representativeLocation":{"_tag":"Placed","latitude":-6.339786,"longitude":106.9013}},{"placeId":"place:transit-ref:place:standalone:gtfs:transjakarta:stop:B06932P","displayLabel":"Agung Karya","aliases":[],"disambiguatingContext":"Halte bus · Jakarta","resultKind":"TransitPlace","transitPlaceId":"place:standalone:gtfs:transjakarta:stop:B06932P","representativeLocation":{"_tag":"Placed","latitude":-6.138513,"longitude":106.878478}},{"placeId":"place:transit-ref:place:standalone:gtfs:transjakarta:stop:B06534P","displayLabel":"Ahmad Yani Bea Cukai 1","aliases":[],"disambiguatingContext":"Halte bus · Jakarta","resultKind":"TransitPlace","transitPlaceId":"place:standalone:gtfs:transjakarta:stop:B06534P","representativeLocation":{"_tag":"Placed","latitude":-6.205555,"longitude":106.87398}},{"placeId":"place:transit-ref:place:standalone:gtfs:transjakarta:stop:B06554P","displayLabel":"Ahmad Yani Bea Cukai 2","aliases":[],"disambiguatingContext":"Halte bus · Jakarta","resultKind":"TransitPlace","transitPlaceId":"place:standalone:gtfs:transjakarta:stop:B06554P","representativeLocation":{"_tag":"Placed","latitude":-6.205673,"longitude":106.87359}},{"placeId":"place:transit-ref:place:standalone:gtfs:transjakarta:stop:B00013P","displayLabel":"Ahmad Yani Pisangan Baru","aliases":[],"disambiguatingContext":"Halte bus · Jakarta","resultKind":"TransitPlace","transitPlaceId":"place:standalone:gtfs:transjakarta:stop:B00013P","representativeLocation":{"_tag":"Placed","latitude":-6.211477,"longitude":106.87374}},{"placeId":"place:transit-ref:place:standalone:gtfs:transjakarta:stop:B00014P","displayLabel":"Airy Eco Binus","aliases":[],"disambiguatingContext":"Halte bus · Jakarta","resultKind":"TransitPlace","transitPlaceId":"place:standalone:gtfs:transjakarta:stop:B00014P","representativeLocation":{"_tag":"Placed","latitude":-6.195282,"longitude":106.78881}},{"placeId":"place:transit-ref:place:standalone:gtfs:transjakarta:stop:B00015P","displayLabel":"Akademi Farmasi Mahadhika","aliases":[],"disambiguatingContext":"Halte bus · Jakarta","resultKind":"TransitPlace","transitPlaceId":"place:standalone:gtfs:transjakarta:stop:B00015P","representativeLocation":{"_tag":"Placed","latitude":-6.312819,"longitude":106.8693}},{"placeId":"place:transit-ref:place:standalone:gtfs:transjakarta:stop:B00016P","displayLabel":"Akbid Yaspen Tugu Ibu","aliases":[],"disambiguatingContext":"Halte bus · Jakarta","resultKind":"TransitPlace","transitPlaceId":"place:standalone:gtfs:transjakarta:stop:B00016P","representativeLocation":{"_tag":"Placed","latitude":-6.360213,"longitude":106.8835}},{"placeId":"place:transit-ref:place:standalone:gtfs:transjakarta:stop:B00017P","displayLabel":"Akper Fatmawati Pondok Labu","aliases":[],"disambiguatingContext":"Halte bus · Jakarta","resultKind":"TransitPlace","transitPlaceId":"place:standalone:gtfs:transjakarta:stop:B00017P","representativeLocation":{"_tag":"Placed","latitude":-6.313187,"longitude":106.79931}},{"placeId":"place:transit-ref:place:standalone:gtfs:transjakarta:stop:B00018P","displayLabel":"AKR Tower","aliases":[],"disambiguatingContext":"Halte bus · Jakarta","resultKind":"TransitPlace","transitPlaceId":"place:standalone:gtfs:transjakarta:stop:B00018P","representativeLocation":{"_tag":"Placed","latitude":-6.190732,"longitude":106.76743}},{"placeId":"place:transit-ref:place:standalone:gtfs:transjakarta:stop:B00365P","displayLabel":"Akses Bawah Flyover Pondok Kopi","aliases":[],"disambiguatingContext":"Halte bus · Jakarta","resultKind":"TransitPlace","transitPlaceId":"place:standalone:gtfs:transjakarta:stop:B00365P","representativeLocation":{"_tag":"Placed","latitude":-6.217758,"longitude":106.93843}},{"placeId":"place:transit-ref:place:standalone:gtfs:transjakarta:stop:B00019P","displayLabel":"Akses Bawah Flyover Raya Bogor","aliases":[],"disambiguatingContext":"Halte bus · Jakarta","resultKind":"TransitPlace","transitPlaceId":"place:standalone:gtfs:transjakarta:stop:B00019P","representativeLocation":{"_tag":"Placed","latitude":-6.307687,"longitude":106.86456}},{"placeId":"place:transit-ref:place:standalone:gtfs:transjakarta:stop:B07657P","displayLabel":"Akses Bawah Flyover Raya Bogor 2","aliases":[],"disambiguatingContext":"Halte bus · Jakarta","resultKind":"TransitPlace","transitPlaceId":"place:standalone:gtfs:transjakarta:stop:B07657P","representativeLocation":{"_tag":"Placed","latitude":-6.306687,"longitude":106.864709}},{"placeId":"place:transit-ref:place:standalone:gtfs:transjakarta:stop:B07658P","displayLabel":"Akses Bawah Flyover Raya Bogor 3","aliases":[],"disambiguatingContext":"Halte bus · Jakarta","resultKind":"TransitPlace","transitPlaceId":"place:standalone:gtfs:transjakarta:stop:B07658P","representativeLocation":{"_tag":"Placed","latitude":-6.305959,"longitude":106.86511}},{"placeId":"place:transit-ref:place:standalone:gtfs:transjakarta:stop:B07587P","displayLabel":"Akses Bawah Flyover Slipi","aliases":[],"disambiguatingContext":"Halte bus · Jakarta","resultKind":"TransitPlace","transitPlaceId":"place:standalone:gtfs:transjakarta:stop:B07587P","representativeLocation":{"_tag":"Placed","latitude":-6.201044,"longitude":106.799406}},{"placeId":"place:transit-ref:place:standalone:gtfs:transjakarta:stop:B00020P","displayLabel":"Akses Bawah Jembatan Marunda","aliases":[],"disambiguatingContext":"Halte bus · Jakarta","resultKind":"TransitPlace","transitPlaceId":"place:standalone:gtfs:transjakarta:stop:B00020P","representativeLocation":{"_tag":"Placed","latitude":-6.110376,"longitude":106.94129}},{"placeId":"place:transit-ref:place:standalone:gtfs:transjakarta:stop:B00021P","displayLabel":"Akses Bawah Sungai Landak","aliases":[],"disambiguatingContext":"Halte bus · Jakarta","resultKind":"TransitPlace","transitPlaceId":"place:standalone:gtfs:transjakarta:stop:B00021P","representativeLocation":{"_tag":"Placed","latitude":-6.109857,"longitude":106.94134}},{"placeId":"place:transit-ref:place:standalone:gtfs:transjakarta:stop:B00022P","displayLabel":"Akses Jembatan Ciliwung Balekambang","aliases":[],"disambiguatingContext":"Halte bus · Jakarta","resultKind":"TransitPlace","transitPlaceId":"place:standalone:gtfs:transjakarta:stop:B00022P","representativeLocation":{"_tag":"Placed","latitude":-6.283554,"longitude":106.84945}},{"placeId":"place:transit-ref:place:standalone:gtfs:transjakarta:stop:B00025P","displayLabel":"Al Barkah","aliases":[],"disambiguatingContext":"Halte bus · Jakarta","resultKind":"TransitPlace","transitPlaceId":"place:standalone:gtfs:transjakarta:stop:B00025P","representativeLocation":{"_tag":"Placed","latitude":-6.219597,"longitude":106.84565}},{"placeId":"place:transit-ref:place:standalone:gtfs:transjakarta:stop:B00026P","displayLabel":"Al Izhar Pondok Labu 1","aliases":[],"disambiguatingContext":"Halte bus · Jakarta","resultKind":"TransitPlace","transitPlaceId":"place:standalone:gtfs:transjakarta:stop:B00026P","representativeLocation":{"_tag":"Placed","latitude":-6.311534,"longitude":106.79094}},{"placeId":"place:transit-ref:place:standalone:gtfs:transjakarta:stop:B00027P","displayLabel":"Al Izhar Pondok Labu 2","aliases":[],"disambiguatingContext":"Halte bus · Jakarta","resultKind":"TransitPlace","transitPlaceId":"place:standalone:gtfs:transjakarta:stop:B00027P","representativeLocation":{"_tag":"Placed","latitude":-6.311504,"longitude":106.79104}},{"placeId":"place:transit-ref:place:standalone:gtfs:transjakarta:stop:B00028P","displayLabel":"Al Khairiyah School","aliases":[],"disambiguatingContext":"Halte bus · Jakarta","resultKind":"TransitPlace","transitPlaceId":"place:standalone:gtfs:transjakarta:stop:B00028P","representativeLocation":{"_tag":"Placed","latitude":-6.236593,"longitude":106.9176}},{"placeId":"place:transit-ref:place:standalone:gtfs:transjakarta:stop:B00029P","displayLabel":"Al Mahbubiyah","aliases":[],"disambiguatingContext":"Halte bus · Jakarta","resultKind":"TransitPlace","transitPlaceId":"place:standalone:gtfs:transjakarta:stop:B00029P","representativeLocation":{"_tag":"Placed","latitude":-6.291866,"longitude":106.81255}},{"placeId":"place:transit-ref:place:standalone:gtfs:transjakarta:stop:B00030P","displayLabel":"Al Mukhlisin","aliases":[],"disambiguatingContext":"Halte bus · Jakarta","resultKind":"TransitPlace","transitPlaceId":"place:standalone:gtfs:transjakarta:stop:B00030P","representativeLocation":{"_tag":"Placed","latitude":-6.128569,"longitude":106.792084}},{"placeId":"place:transit-ref:place:standalone:gtfs:transjakarta:stop:B00031P","displayLabel":"Al Wathoniyah 1","aliases":[],"disambiguatingContext":"Halte bus · Jakarta","resultKind":"TransitPlace","transitPlaceId":"place:standalone:gtfs:transjakarta:stop:B00031P","representativeLocation":{"_tag":"Placed","latitude":-6.192036,"longitude":106.9353}},{"placeId":"place:transit-ref:place:standalone:gtfs:transjakarta:stop:B00032P","displayLabel":"Al Wathoniyah 2","aliases":[],"disambiguatingContext":"Halte bus · Jakarta","resultKind":"TransitPlace","transitPlaceId":"place:standalone:gtfs:transjakarta:stop:B00032P","representativeLocation":{"_tag":"Placed","latitude":-6.192425,"longitude":106.93568}},{"placeId":"place:transit-ref:place:standalone:gtfs:transjakarta:stop:B06709P","displayLabel":"Al-Wathoniyah","aliases":[],"disambiguatingContext":"Halte bus · Jakarta","resultKind":"TransitPlace","transitPlaceId":"place:standalone:gtfs:transjakarta:stop:B06709P","representativeLocation":{"_tag":"Placed","latitude":-6.18371,"longitude":106.923718}},{"placeId":"place:transit-ref:place:standalone:gtfs:transjakarta:stop:B02894P","displayLabel":"Alfurqon","aliases":[],"disambiguatingContext":"Halte bus · Jakarta","resultKind":"TransitPlace","transitPlaceId":"place:standalone:gtfs:transjakarta:stop:B02894P","representativeLocation":{"_tag":"Placed","latitude":-6.184794,"longitude":106.84433}},{"placeId":"place:transit-ref:place:standalone:gtfs:transjakarta:stop:B00033P","displayLabel":"Aljabr Islamic School","aliases":[],"disambiguatingContext":"Halte bus · Jakarta","resultKind":"TransitPlace","transitPlaceId":"place:standalone:gtfs:transjakarta:stop:B00033P","representativeLocation":{"_tag":"Placed","latitude":-6.308023,"longitude":106.80371}},{"placeId":"place:transit-ref:place:standalone:gtfs:transjakarta:stop:B00034P","displayLabel":"Allianz","aliases":[],"disambiguatingContext":"Halte bus · Jakarta","resultKind":"TransitPlace","transitPlaceId":"place:standalone:gtfs:transjakarta:stop:B00034P","representativeLocation":{"_tag":"Placed","latitude":-6.209233,"longitude":106.83076}},{"placeId":"place:transit-ref:place:standalone:gtfs:transjakarta:stop:B08129P","displayLabel":"Aloha","aliases":[],"disambiguatingContext":"Halte bus · Jakarta","resultKind":"TransitPlace","transitPlaceId":"place:standalone:gtfs:transjakarta:stop:B08129P","representativeLocation":{"_tag":"Placed","latitude":-6.070722,"longitude":106.713422}},{"placeId":"place:transit-ref:place:standalone:gtfs:transjakarta:stop:B02183P","displayLabel":"Ambassador","aliases":[],"disambiguatingContext":"Halte bus · Jakarta","resultKind":"TransitPlace","transitPlaceId":"place:standalone:gtfs:transjakarta:stop:B02183P","representativeLocation":{"_tag":"Placed","latitude":-6.224125,"longitude":106.82663}},{"placeId":"place:transit-ref:place:standalone:gtfs:transjakarta:stop:B00035P","displayLabel":"Ampera 1","aliases":[],"disambiguatingContext":"Halte bus · Jakarta","resultKind":"TransitPlace","transitPlaceId":"place:standalone:gtfs:transjakarta:stop:B00035P","representativeLocation":{"_tag":"Placed","latitude":-6.292069,"longitude":106.81774}},{"placeId":"place:transit-ref:place:standalone:gtfs:transjakarta:stop:B00036P","displayLabel":"Ampera 2","aliases":[],"disambiguatingContext":"Halte bus · Jakarta","resultKind":"TransitPlace","transitPlaceId":"place:standalone:gtfs:transjakarta:stop:B00036P","representativeLocation":{"_tag":"Placed","latitude":-6.292641,"longitude":106.81563}},{"placeId":"place:transit-ref:place:standalone:gtfs:transjakarta:stop:B00037P","displayLabel":"Ampera 3","aliases":[],"disambiguatingContext":"Halte bus · Jakarta","resultKind":"TransitPlace","transitPlaceId":"place:standalone:gtfs:transjakarta:stop:B00037P","representativeLocation":{"_tag":"Placed","latitude":-6.291196,"longitude":106.81706}},{"placeId":"place:transit-ref:place:standalone:gtfs:transjakarta:stop:B00038P","displayLabel":"Ampera 4","aliases":[],"disambiguatingContext":"Halte bus · Jakarta","resultKind":"TransitPlace","transitPlaceId":"place:standalone:gtfs:transjakarta:stop:B00038P","representativeLocation":{"_tag":"Placed","latitude":-6.291345,"longitude":106.8172}},{"placeId":"place:transit-ref:place:standalone:gtfs:transjakarta:stop:B00039P","displayLabel":"Ampera Garden","aliases":[],"disambiguatingContext":"Halte bus · Jakarta","resultKind":"TransitPlace","transitPlaceId":"place:standalone:gtfs:transjakarta:stop:B00039P","representativeLocation":{"_tag":"Placed","latitude":-6.288794,"longitude":106.81818}},{"placeId":"place:transit-ref:place:standalone:gtfs:transjakarta:stop:B00040P","displayLabel":"Ampera Yos Sudarso","aliases":[],"disambiguatingContext":"Halte bus · Jakarta","resultKind":"TransitPlace","transitPlaceId":"place:standalone:gtfs:transjakarta:stop:B00040P","representativeLocation":{"_tag":"Placed","latitude":-6.122624,"longitude":106.89322}},{"placeId":"place:transit-ref:place:standalone:gtfs:transjakarta:stop:B00041P","displayLabel":"Ananda Pulo Gadung","aliases":[],"disambiguatingContext":"Halte bus · Jakarta","resultKind":"TransitPlace","transitPlaceId":"place:standalone:gtfs:transjakarta:stop:B00041P","representativeLocation":{"_tag":"Placed","latitude":-6.185254,"longitude":106.90716}},{"placeId":"place:landmark:node:5124126895","displayLabel":"Ancol","aliases":[],"disambiguatingContext":"Pademangan · Jakarta Utara","resultKind":"Landmark","representativeLocation":{"_tag":"Placed","latitude":-6.128115,"longitude":106.8451374}},{"placeId":"place:landmark:relation:5802121","displayLabel":"Ancol","aliases":[],"disambiguatingContext":"Pademangan · Jakarta Utara","resultKind":"Landmark","representativeLocation":{"_tag":"Placed","latitude":-6.125215,"longitude":106.8362474}},{"placeId":"place:landmark:way:28793189","displayLabel":"Ancol","aliases":[],"disambiguatingContext":"Pademangan · Jakarta Utara","resultKind":"Landmark","representativeLocation":{"_tag":"Placed","latitude":-6.1267961,"longitude":106.8494416}},{"placeId":"place:transit-ref:place:source:gtfs:transjakarta:stop:H00003P","displayLabel":"Ancol","aliases":[],"disambiguatingContext":"Halte bus · Jakarta","resultKind":"TransitPlace","transitPlaceId":"place:source:gtfs:transjakarta:stop:H00003P","representativeLocation":{"_tag":"Placed","latitude":-6.127563,"longitude":106.83039}},{"placeId":"place:transit-ref:place:standalone:gtfs:transjakarta:stop:B06000P","displayLabel":"Ancol Pintu 2","aliases":[],"disambiguatingContext":"Halte bus · Jakarta","resultKind":"TransitPlace","transitPlaceId":"place:standalone:gtfs:transjakarta:stop:B06000P","representativeLocation":{"_tag":"Placed","latitude":-6.12719,"longitude":106.84461}},{"placeId":"place:transit-ref:place:standalone:gtfs:transjakarta:stop:B00042P","displayLabel":"Andara Margasatwa 1","aliases":[],"disambiguatingContext":"Halte bus · Jakarta","resultKind":"TransitPlace","transitPlaceId":"place:standalone:gtfs:transjakarta:stop:B00042P","representativeLocation":{"_tag":"Placed","latitude":-6.313858,"longitude":106.803775}},{"placeId":"place:transit-ref:place:standalone:gtfs:transjakarta:stop:B00043P","displayLabel":"Andara Margasatwa 2","aliases":[],"disambiguatingContext":"Halte bus · Jakarta","resultKind":"TransitPlace","transitPlaceId":"place:standalone:gtfs:transjakarta:stop:B00043P","representativeLocation":{"_tag":"Placed","latitude":-6.313577,"longitude":106.80356}},{"placeId":"place:transit-ref:place:standalone:gtfs:transjakarta:stop:B00044P","displayLabel":"Andara Margasatwa 3","aliases":[],"disambiguatingContext":"Halte bus · Jakarta","resultKind":"TransitPlace","transitPlaceId":"place:standalone:gtfs:transjakarta:stop:B00044P","representativeLocation":{"_tag":"Placed","latitude":-6.312832,"longitude":106.80338}},{"placeId":"place:transit-ref:place:standalone:gtfs:transjakarta:stop:B00045P","displayLabel":"Andara Margasatwa 4","aliases":[],"disambiguatingContext":"Halte bus · Jakarta","resultKind":"TransitPlace","transitPlaceId":"place:standalone:gtfs:transjakarta:stop:B00045P","representativeLocation":{"_tag":"Placed","latitude":-6.312578,"longitude":106.80356}},{"placeId":"place:transit-ref:place:standalone:gtfs:transjakarta:stop:B00046P","displayLabel":"Aneka Apotek","aliases":[],"disambiguatingContext":"Halte bus · Jakarta","resultKind":"TransitPlace","transitPlaceId":"place:standalone:gtfs:transjakarta:stop:B00046P","representativeLocation":{"_tag":"Placed","latitude":-6.151647,"longitude":106.87959}},{"placeId":"place:transit-ref:place:standalone:gtfs:transjakarta:stop:B00048P","displayLabel":"Aneka PIK Penggilingan","aliases":[],"disambiguatingContext":"Halte bus · Jakarta","resultKind":"TransitPlace","transitPlaceId":"place:standalone:gtfs:transjakarta:stop:B00048P","representativeLocation":{"_tag":"Placed","latitude":-6.202636,"longitude":106.92867}},{"placeId":"place:transit-ref:place:standalone:gtfs:transjakarta:stop:B00051P","displayLabel":"Anggrek Neli Murni","aliases":[],"disambiguatingContext":"Halte bus · Jakarta","resultKind":"TransitPlace","transitPlaceId":"place:standalone:gtfs:transjakarta:stop:B00051P","representativeLocation":{"_tag":"Placed","latitude":-6.18968,"longitude":106.79438}},{"placeId":"place:transit-ref:place:standalone:gtfs:transjakarta:stop:B08606P","displayLabel":"Anggrek Rosliana 1","aliases":[],"disambiguatingContext":"Halte bus · Jakarta","resultKind":"TransitPlace","transitPlaceId":"place:standalone:gtfs:transjakarta:stop:B08606P","representativeLocation":{"_tag":"Placed","latitude":-6.195184,"longitude":106.7946}},{"placeId":"place:transit-ref:place:standalone:gtfs:transjakarta:stop:B08607P","displayLabel":"Anggrek Rosliana 2","aliases":[],"disambiguatingContext":"Halte bus · Jakarta","resultKind":"TransitPlace","transitPlaceId":"place:standalone:gtfs:transjakarta:stop:B08607P","representativeLocation":{"_tag":"Placed","latitude":-6.195253,"longitude":106.79473}},{"placeId":"place:transit-ref:place:standalone:gtfs:transjakarta:stop:B00053P","displayLabel":"Antena II","aliases":[],"disambiguatingContext":"Halte bus · Jakarta","resultKind":"TransitPlace","transitPlaceId":"place:standalone:gtfs:transjakarta:stop:B00053P","representativeLocation":{"_tag":"Placed","latitude":-6.25033,"longitude":106.79163}},{"placeId":"place:transit-ref:place:standalone:gtfs:transjakarta:stop:B00052P","displayLabel":"Antena III","aliases":[],"disambiguatingContext":"Halte bus · Jakarta","resultKind":"TransitPlace","transitPlaceId":"place:standalone:gtfs:transjakarta:stop:B00052P","representativeLocation":{"_tag":"Placed","latitude":-6.250129,"longitude":106.791759}},{"placeId":"place:transit-ref:place:standalone:gtfs:transjakarta:stop:B06962P","displayLabel":"Apartemen Capitol Kwitang","aliases":[],"disambiguatingContext":"Halte bus · Jakarta","resultKind":"TransitPlace","transitPlaceId":"place:standalone:gtfs:transjakarta:stop:B06962P","representativeLocation":{"_tag":"Placed","latitude":-6.180529,"longitude":106.839168}},{"placeId":"place:transit-ref:place:standalone:gtfs:transjakarta:stop:B00054P","displayLabel":"Apartemen Gading Nias","aliases":[],"disambiguatingContext":"Halte bus · Jakarta","resultKind":"TransitPlace","transitPlaceId":"place:standalone:gtfs:transjakarta:stop:B00054P","representativeLocation":{"_tag":"Placed","latitude":-6.154358,"longitude":106.91615}},{"placeId":"place:transit-ref:place:standalone:gtfs:transjakarta:stop:B00055P","displayLabel":"Apartemen Kedoya Elok 1","aliases":[],"disambiguatingContext":"Halte bus · Jakarta","resultKind":"TransitPlace","transitPlaceId":"place:standalone:gtfs:transjakarta:stop:B00055P","representativeLocation":{"_tag":"Placed","latitude":-6.18847,"longitude":106.768804}},{"placeId":"place:transit-ref:place:standalone:gtfs:transjakarta:stop:B00056P","displayLabel":"Apartemen Kedoya Elok 2","aliases":[],"disambiguatingContext":"Halte bus · Jakarta","resultKind":"TransitPlace","transitPlaceId":"place:standalone:gtfs:transjakarta:stop:B00056P","representativeLocation":{"_tag":"Placed","latitude":-6.188259,"longitude":106.76855}},{"placeId":"place:transit-ref:place:standalone:gtfs:transjakarta:stop:B00057P","displayLabel":"Apartemen Metro Sunter","aliases":[],"disambiguatingContext":"Halte bus · Jakarta","resultKind":"TransitPlace","transitPlaceId":"place:standalone:gtfs:transjakarta:stop:B00057P","representativeLocation":{"_tag":"Placed","latitude":-6.13396,"longitude":106.87208}},{"placeId":"place:transit-ref:place:standalone:gtfs:transjakarta:stop:B00058P","displayLabel":"Apartemen Simprug Teras","aliases":[],"disambiguatingContext":"Halte bus · Jakarta","resultKind":"TransitPlace","transitPlaceId":"place:standalone:gtfs:transjakarta:stop:B00058P","representativeLocation":{"_tag":"Placed","latitude":-6.232197,"longitude":106.78874}},{"placeId":"place:transit-ref:place:standalone:gtfs:transjakarta:stop:B00059P","displayLabel":"Apotik Emilia Rawamangun","aliases":[],"disambiguatingContext":"Halte bus · Jakarta","resultKind":"TransitPlace","transitPlaceId":"place:standalone:gtfs:transjakarta:stop:B00059P","representativeLocation":{"_tag":"Placed","latitude":-6.202019,"longitude":106.88477}},{"placeId":"place:transit-ref:place:standalone:gtfs:transjakarta:stop:B00060P","displayLabel":"Apotik Rini Rawamangun","aliases":[],"disambiguatingContext":"Halte bus · Jakarta","resultKind":"TransitPlace","transitPlaceId":"place:standalone:gtfs:transjakarta:stop:B00060P","representativeLocation":{"_tag":"Placed","latitude":-6.199914,"longitude":106.88595}},{"placeId":"place:transit-ref:place:standalone:gtfs:transjakarta:stop:B00062P","displayLabel":"Aries Utama","aliases":[],"disambiguatingContext":"Halte bus · Jakarta","resultKind":"TransitPlace","transitPlaceId":"place:standalone:gtfs:transjakarta:stop:B00062P","representativeLocation":{"_tag":"Placed","latitude":-6.197385,"longitude":106.75145}},{"placeId":"place:transit-ref:place:standalone:gtfs:transjakarta:stop:B00063P","displayLabel":"Aries Utama III","aliases":[],"disambiguatingContext":"Halte bus · Jakarta","resultKind":"TransitPlace","transitPlaceId":"place:standalone:gtfs:transjakarta:stop:B00063P","representativeLocation":{"_tag":"Placed","latitude":-6.197454,"longitude":106.74602}},{"placeId":"place:transit-ref:place:standalone:gtfs:transjakarta:stop:B00065P","displayLabel":"Arion Mall","aliases":[],"disambiguatingContext":"Halte bus · Jakarta","resultKind":"TransitPlace","transitPlaceId":"place:standalone:gtfs:transjakarta:stop:B00065P","representativeLocation":{"_tag":"Placed","latitude":-6.193631,"longitude":106.89068}},{"placeId":"place:transit-ref:place:standalone:gtfs:transjakarta:stop:B08551P","displayLabel":"Arista 1","aliases":[],"disambiguatingContext":"Halte bus · Jakarta","resultKind":"TransitPlace","transitPlaceId":"place:standalone:gtfs:transjakarta:stop:B08551P","representativeLocation":{"_tag":"Placed","latitude":-6.23799,"longitude":106.93088}},{"placeId":"place:transit-ref:place:standalone:gtfs:transjakarta:stop:B08552P","displayLabel":"Arista 2","aliases":[],"disambiguatingContext":"Halte bus · Jakarta","resultKind":"TransitPlace","transitPlaceId":"place:standalone:gtfs:transjakarta:stop:B08552P","representativeLocation":{"_tag":"Placed","latitude":-6.23803,"longitude":106.93102}},{"placeId":"place:transit-ref:place:standalone:gtfs:transjakarta:stop:B00066P","displayLabel":"Arsip Nasional RI 1","aliases":[],"disambiguatingContext":"Halte bus · Jakarta","resultKind":"TransitPlace","transitPlaceId":"place:standalone:gtfs:transjakarta:stop:B00066P","representativeLocation":{"_tag":"Placed","latitude":-6.279439,"longitude":106.81987}},{"placeId":"place:transit-ref:place:standalone:gtfs:transjakarta:stop:B00067P","displayLabel":"Arsip Nasional RI 2","aliases":[],"disambiguatingContext":"Halte bus · Jakarta","resultKind":"TransitPlace","transitPlaceId":"place:standalone:gtfs:transjakarta:stop:B00067P","representativeLocation":{"_tag":"Placed","latitude":-6.279323,"longitude":106.819935}},{"placeId":"place:transit-ref:place:source:gtfs:transjakarta:stop:H00167P","displayLabel":"Arteri","aliases":[],"disambiguatingContext":"Halte bus · Jakarta","resultKind":"TransitPlace","transitPlaceId":"place:source:gtfs:transjakarta:stop:H00167P","representativeLocation":{"_tag":"Placed","latitude":-6.218401,"longitude":106.77761}},{"placeId":"place:transit-ref:place:standalone:gtfs:transjakarta:stop:B00068P","displayLabel":"Artha Gading 1","aliases":[],"disambiguatingContext":"Halte bus · Jakarta","resultKind":"TransitPlace","transitPlaceId":"place:standalone:gtfs:transjakarta:stop:B00068P","representativeLocation":{"_tag":"Placed","latitude":-6.144287,"longitude":106.8907}},{"placeId":"place:transit-ref:place:source:gtfs:transjakarta:stop:H00265P","displayLabel":"ASEAN","aliases":[],"disambiguatingContext":"Halte bus · Jakarta","resultKind":"TransitPlace","transitPlaceId":"place:source:gtfs:transjakarta:stop:H00265P","representativeLocation":{"_tag":"Placed","latitude":-6.239889,"longitude":106.79897}},{"placeId":"place:transit-ref:place:standalone:gtfs:transjakarta:stop:B06729P","displayLabel":"Asem","aliases":[],"disambiguatingContext":"Halte bus · Jakarta","resultKind":"TransitPlace","transitPlaceId":"place:standalone:gtfs:transjakarta:stop:B06729P","representativeLocation":{"_tag":"Placed","latitude":-6.271497,"longitude":106.808574}},{"placeId":"place:transit-ref:place:standalone:gtfs:transjakarta:stop:B00069P","displayLabel":"ASMI 1","aliases":[],"disambiguatingContext":"Halte bus · Jakarta","resultKind":"TransitPlace","transitPlaceId":"place:standalone:gtfs:transjakarta:stop:B00069P","representativeLocation":{"_tag":"Placed","latitude":-6.17171,"longitude":106.88889}},{"placeId":"place:transit-ref:place:standalone:gtfs:transjakarta:stop:B00070P","displayLabel":"ASMI 2","aliases":[],"disambiguatingContext":"Halte bus · Jakarta","resultKind":"TransitPlace","transitPlaceId":"place:standalone:gtfs:transjakarta:stop:B00070P","representativeLocation":{"_tag":"Placed","latitude":-6.172158,"longitude":106.88894}},{"placeId":"place:transit-ref:place:standalone:gtfs:transjakarta:stop:B00071P","displayLabel":"Asrama Brimob Cilincing","aliases":[],"disambiguatingContext":"Halte bus · Jakarta","resultKind":"TransitPlace","transitPlaceId":"place:standalone:gtfs:transjakarta:stop:B00071P","representativeLocation":{"_tag":"Placed","latitude":-6.104565,"longitude":106.93689}},{"placeId":"place:transit-ref:place:standalone:gtfs:transjakarta:stop:B00072P","displayLabel":"Asrama Haji Pondok Gede","aliases":[],"disambiguatingContext":"Halte bus · Jakarta","resultKind":"TransitPlace","transitPlaceId":"place:standalone:gtfs:transjakarta:stop:B00072P","representativeLocation":{"_tag":"Placed","latitude":-6.290541,"longitude":106.88827}},{"placeId":"place:transit-ref:place:standalone:gtfs:transjakarta:stop:B00073P","displayLabel":"Asrama Marinir Marunda 1","aliases":[],"disambiguatingContext":"Halte bus · Jakarta","resultKind":"TransitPlace","transitPlaceId":"place:standalone:gtfs:transjakarta:stop:B00073P","representativeLocation":{"_tag":"Placed","latitude":-6.114597,"longitude":106.95034}},{"placeId":"place:transit-ref:place:standalone:gtfs:transjakarta:stop:B00074P","displayLabel":"Asrama Marinir Marunda 2","aliases":[],"disambiguatingContext":"Halte bus · Jakarta","resultKind":"TransitPlace","transitPlaceId":"place:standalone:gtfs:transjakarta:stop:B00074P","representativeLocation":{"_tag":"Placed","latitude":-6.114579,"longitude":106.95023}},{"placeId":"place:transit-ref:place:standalone:gtfs:transjakarta:stop:B00075P","displayLabel":"Asrama Polri Cideng","aliases":[],"disambiguatingContext":"Halte bus · Jakarta","resultKind":"TransitPlace","transitPlaceId":"place:standalone:gtfs:transjakarta:stop:B00075P","representativeLocation":{"_tag":"Placed","latitude":-6.178925,"longitude":106.81262}},{"placeId":"place:transit-ref:place:standalone:gtfs:transjakarta:stop:B06010P","displayLabel":"ASSA","aliases":[],"disambiguatingContext":"Halte bus · Jakarta","resultKind":"TransitPlace","transitPlaceId":"place:standalone:gtfs:transjakarta:stop:B06010P","representativeLocation":{"_tag":"Placed","latitude":-6.149222,"longitude":106.92471}},{"placeId":"place:transit-ref:place:standalone:gtfs:transjakarta:stop:B00076P","displayLabel":"Asshomadiyah Medicare Centre 1","aliases":[],"disambiguatingContext":"Halte bus · Jakarta","resultKind":"TransitPlace","transitPlaceId":"place:standalone:gtfs:transjakarta:stop:B00076P","representativeLocation":{"_tag":"Placed","latitude":-6.295486,"longitude":106.89804}},{"placeId":"place:transit-ref:place:standalone:gtfs:transjakarta:stop:B00077P","displayLabel":"Asshomadiyah Medicare Centre 2","aliases":[],"disambiguatingContext":"Halte bus · Jakarta","resultKind":"TransitPlace","transitPlaceId":"place:standalone:gtfs:transjakarta:stop:B00077P","representativeLocation":{"_tag":"Placed","latitude":-6.29557,"longitude":106.89825}},{"placeId":"place:transit-ref:place:standalone:gtfs:transjakarta:stop:B00078P","displayLabel":"Astek","aliases":[],"disambiguatingContext":"Halte bus · Jakarta","resultKind":"TransitPlace","transitPlaceId":"place:standalone:gtfs:transjakarta:stop:B00078P","representativeLocation":{"_tag":"Placed","latitude":-6.291175,"longitude":106.66598}},{"placeId":"place:transit-ref:place:standalone:gtfs:transjakarta:stop:B00079P","displayLabel":"Aston Pluit 1","aliases":[],"disambiguatingContext":"Halte bus · Jakarta","resultKind":"TransitPlace","transitPlaceId":"place:standalone:gtfs:transjakarta:stop:B00079P","representativeLocation":{"_tag":"Placed","latitude":-6.124693,"longitude":106.79511}},{"placeId":"place:transit-ref:place:standalone:gtfs:transjakarta:stop:B00080P","displayLabel":"Aston Pluit 2","aliases":[],"disambiguatingContext":"Halte bus · Jakarta","resultKind":"TransitPlace","transitPlaceId":"place:standalone:gtfs:transjakarta:stop:B00080P","representativeLocation":{"_tag":"Placed","latitude":-6.124268,"longitude":106.79419}},{"placeId":"place:transit-ref:place:standalone:gtfs:transjakarta:stop:B06934P","displayLabel":"Astra Sunter","aliases":[],"disambiguatingContext":"Halte bus · Jakarta","resultKind":"TransitPlace","transitPlaceId":"place:standalone:gtfs:transjakarta:stop:B06934P","representativeLocation":{"_tag":"Placed","latitude":-6.141305,"longitude":106.886521}},{"placeId":"place:transit-ref:place:standalone:gtfs:transjakarta:stop:B00081P","displayLabel":"At Thahiriah 1","aliases":[],"disambiguatingContext":"Halte bus · Jakarta","resultKind":"TransitPlace","transitPlaceId":"place:standalone:gtfs:transjakarta:stop:B00081P","representativeLocation":{"_tag":"Placed","latitude":-6.210032,"longitude":106.93803}},{"placeId":"place:transit-ref:place:standalone:gtfs:transjakarta:stop:B00082P","displayLabel":"At Thahiriah 2","aliases":[],"disambiguatingContext":"Halte bus · Jakarta","resultKind":"TransitPlace","transitPlaceId":"place:standalone:gtfs:transjakarta:stop:B00082P","representativeLocation":{"_tag":"Placed","latitude":-6.210011,"longitude":106.93809}},{"placeId":"place:transit-ref:place:standalone:gtfs:transjakarta:stop:B00083P","displayLabel":"Atrium 1","aliases":[],"disambiguatingContext":"Halte bus · Jakarta","resultKind":"TransitPlace","transitPlaceId":"place:standalone:gtfs:transjakarta:stop:B00083P","representativeLocation":{"_tag":"Placed","latitude":-6.177759,"longitude":106.8412}},{"placeId":"place:transit-ref:place:standalone:gtfs:transjakarta:stop:B00084P","displayLabel":"Atrium 2","aliases":[],"disambiguatingContext":"Halte bus · Jakarta","resultKind":"TransitPlace","transitPlaceId":"place:standalone:gtfs:transjakarta:stop:B00084P","representativeLocation":{"_tag":"Placed","latitude":-6.17687,"longitude":106.84042}},{"placeId":"place:transit-ref:place:standalone:gtfs:transjakarta:stop:B00085P","displayLabel":"Aula Simfonia","aliases":[],"disambiguatingContext":"Halte bus · Jakarta","resultKind":"TransitPlace","transitPlaceId":"place:standalone:gtfs:transjakarta:stop:B00085P","representativeLocation":{"_tag":"Placed","latitude":-6.152158,"longitude":106.8436}},{"placeId":"place:transit-ref:place:standalone:gtfs:transjakarta:stop:B00086P","displayLabel":"AURI Jatibaru","aliases":[],"disambiguatingContext":"Halte bus · Jakarta","resultKind":"TransitPlace","transitPlaceId":"place:standalone:gtfs:transjakarta:stop:B00086P","representativeLocation":{"_tag":"Placed","latitude":-6.182985,"longitude":106.81407}},{"placeId":"place:transit-ref:place:standalone:gtfs:transjakarta:stop:B00087P","displayLabel":"Auto 2000","aliases":[],"disambiguatingContext":"Halte bus · Jakarta","resultKind":"TransitPlace","transitPlaceId":"place:standalone:gtfs:transjakarta:stop:B00087P","representativeLocation":{"_tag":"Placed","latitude":-6.25922,"longitude":106.78922}},{"placeId":"place:transit-ref:place:standalone:gtfs:transjakarta:stop:B00088P","displayLabel":"Awab Dalam","aliases":[],"disambiguatingContext":"Halte bus · Jakarta","resultKind":"TransitPlace","transitPlaceId":"place:standalone:gtfs:transjakarta:stop:B00088P","representativeLocation":{"_tag":"Placed","latitude":-6.224877,"longitude":106.8696}},{"placeId":"place:transit-ref:place:standalone:gtfs:transjakarta:stop:B06754P","displayLabel":"Awaludin 2","aliases":[],"disambiguatingContext":"Halte bus · Jakarta","resultKind":"TransitPlace","transitPlaceId":"place:standalone:gtfs:transjakarta:stop:B06754P","representativeLocation":{"_tag":"Placed","latitude":-6.199127,"longitude":106.814572}},{"placeId":"place:transit-ref:place:standalone:gtfs:transjakarta:stop:B00089P","displayLabel":"Ayam Kalasan Pisangan Lama","aliases":[],"disambiguatingContext":"Halte bus · Jakarta","resultKind":"TransitPlace","transitPlaceId":"place:standalone:gtfs:transjakarta:stop:B00089P","representativeLocation":{"_tag":"Placed","latitude":-6.210495,"longitude":106.87869}},{"placeId":"place:transit-ref:place:standalone:gtfs:transjakarta:stop:B00090P","displayLabel":"Azhari Islamic School 1","aliases":[],"disambiguatingContext":"Halte bus · Jakarta","resultKind":"TransitPlace","transitPlaceId":"place:standalone:gtfs:transjakarta:stop:B00090P","representativeLocation":{"_tag":"Placed","latitude":-6.305186,"longitude":106.77789}},{"placeId":"place:transit-ref:place:standalone:gtfs:transjakarta:stop:B00091P","displayLabel":"Azhari Islamic School 2","aliases":[],"disambiguatingContext":"Halte bus · Jakarta","resultKind":"TransitPlace","transitPlaceId":"place:standalone:gtfs:transjakarta:stop:B00091P","representativeLocation":{"_tag":"Placed","latitude":-6.305309,"longitude":106.77796}},{"placeId":"place:transit-ref:place:standalone:gtfs:transjakarta:stop:B00092P","displayLabel":"Bacang Lubang Buaya","aliases":[],"disambiguatingContext":"Halte bus · Jakarta","resultKind":"TransitPlace","transitPlaceId":"place:standalone:gtfs:transjakarta:stop:B00092P","representativeLocation":{"_tag":"Placed","latitude":-6.288956,"longitude":106.89696}},{"placeId":"place:transit-ref:place:standalone:gtfs:transjakarta:stop:B00093P","displayLabel":"Badan Diklat Kejaksaan RI","aliases":[],"disambiguatingContext":"Halte bus · Jakarta","resultKind":"TransitPlace","transitPlaceId":"place:standalone:gtfs:transjakarta:stop:B00093P","representativeLocation":{"_tag":"Placed","latitude":-6.304295,"longitude":106.82095}},{"placeId":"place:transit-ref:place:standalone:gtfs:transjakarta:stop:B00096P","displayLabel":"Badan Penghubung Sulawesi Tengah","aliases":[],"disambiguatingContext":"Halte bus · Jakarta","resultKind":"TransitPlace","transitPlaceId":"place:standalone:gtfs:transjakarta:stop:B00096P","representativeLocation":{"_tag":"Placed","latitude":-6.175029,"longitude":106.80734}},{"placeId":"place:transit-ref:place:standalone:gtfs:transjakarta:stop:B00097P","displayLabel":"Badan Restorasi Gambut RI","aliases":[],"disambiguatingContext":"Halte bus · Jakarta","resultKind":"TransitPlace","transitPlaceId":"place:standalone:gtfs:transjakarta:stop:B00097P","representativeLocation":{"_tag":"Placed","latitude":-6.191286,"longitude":106.833203}},{"placeId":"place:transit-ref:place:standalone:gtfs:transjakarta:stop:B00098P","displayLabel":"Baileys Lagoon City","aliases":[],"disambiguatingContext":"Halte bus · Jakarta","resultKind":"TransitPlace","transitPlaceId":"place:standalone:gtfs:transjakarta:stop:B00098P","representativeLocation":{"_tag":"Placed","latitude":-6.315461,"longitude":106.74677}},{"placeId":"place:transit-ref:place:standalone:gtfs:transjakarta:stop:B00099P","displayLabel":"Bakti Mulia 400","aliases":[],"disambiguatingContext":"Halte bus · Jakarta","resultKind":"TransitPlace","transitPlaceId":"place:standalone:gtfs:transjakarta:stop:B00099P","representativeLocation":{"_tag":"Placed","latitude":-6.275838,"longitude":106.77675}},{"placeId":"place:transit-ref:place:standalone:gtfs:transjakarta:stop:B00100P","displayLabel":"Baladewa Residence","aliases":[],"disambiguatingContext":"Halte bus · Jakarta","resultKind":"TransitPlace","transitPlaceId":"place:standalone:gtfs:transjakarta:stop:B00100P","representativeLocation":{"_tag":"Placed","latitude":-6.229648,"longitude":106.91038}},{"placeId":"place:transit-ref:place:standalone:gtfs:transjakarta:stop:B00101P","displayLabel":"Balai Kartini","aliases":[],"disambiguatingContext":"Halte bus · Jakarta","resultKind":"TransitPlace","transitPlaceId":"place:standalone:gtfs:transjakarta:stop:B00101P","representativeLocation":{"_tag":"Placed","latitude":-6.234791,"longitude":106.82457}},{"placeId":"place:transit-ref:place:source:gtfs:transjakarta:stop:H00006P","displayLabel":"Balai Kota","aliases":[],"disambiguatingContext":"Halte bus · Jakarta","resultKind":"TransitPlace","transitPlaceId":"place:source:gtfs:transjakarta:stop:H00006P","representativeLocation":{"_tag":"Placed","latitude":-6.180488,"longitude":106.82646}},{"placeId":"place:transit-ref:place:standalone:gtfs:transjakarta:stop:B00102P","displayLabel":"Balai Kota 1","aliases":[],"disambiguatingContext":"Halte bus · Jakarta","resultKind":"TransitPlace","transitPlaceId":"place:standalone:gtfs:transjakarta:stop:B00102P","representativeLocation":{"_tag":"Placed","latitude":-6.180598,"longitude":106.82847}},{"placeId":"place:transit-ref:place:standalone:gtfs:transjakarta:stop:B00106P","displayLabel":"Balai Kota Depok 2","aliases":[],"disambiguatingContext":"Halte bus · Jakarta","resultKind":"TransitPlace","transitPlaceId":"place:standalone:gtfs:transjakarta:stop:B00106P","representativeLocation":{"_tag":"Placed","latitude":-6.394973,"longitude":106.82277}},{"placeId":"place:transit-ref:place:standalone:gtfs:transjakarta:stop:B00103P","displayLabel":"Balai Nikah Kembangan Utara","aliases":[],"disambiguatingContext":"Halte bus · Jakarta","resultKind":"TransitPlace","transitPlaceId":"place:standalone:gtfs:transjakarta:stop:B00103P","representativeLocation":{"_tag":"Placed","latitude":-6.181467,"longitude":106.73448}},{"placeId":"place:transit-ref:place:standalone:gtfs:transjakarta:stop:B00104P","displayLabel":"Balai Pertamina","aliases":[],"disambiguatingContext":"Halte bus · Jakarta","resultKind":"TransitPlace","transitPlaceId":"place:standalone:gtfs:transjakarta:stop:B00104P","representativeLocation":{"_tag":"Placed","latitude":-6.229555,"longitude":106.79052}},{"placeId":"place:transit-ref:place:standalone:gtfs:transjakarta:stop:B07995P","displayLabel":"Balai Proteksi Tanaman","aliases":[],"disambiguatingContext":"Halte bus · Jakarta","resultKind":"TransitPlace","transitPlaceId":"place:standalone:gtfs:transjakarta:stop:B07995P","representativeLocation":{"_tag":"Placed","latitude":-6.356863,"longitude":106.890258}},{"placeId":"place:transit-ref:place:standalone:gtfs:transjakarta:stop:B00105P","displayLabel":"Balai Sudirman","aliases":[],"disambiguatingContext":"Halte bus · Jakarta","resultKind":"TransitPlace","transitPlaceId":"place:standalone:gtfs:transjakarta:stop:B00105P","representativeLocation":{"_tag":"Placed","latitude":-6.227043,"longitude":106.84742}},{"placeId":"place:transit-ref:place:source:gtfs:transjakarta:stop:H00148P","displayLabel":"Bali Mester","aliases":[],"disambiguatingContext":"Halte bus · Jakarta","resultKind":"TransitPlace","transitPlaceId":"place:source:gtfs:transjakarta:stop:H00148P","representativeLocation":{"_tag":"Placed","latitude":-6.215744,"longitude":106.86632}},{"placeId":"place:transit-ref:place:standalone:gtfs:transjakarta:stop:B07198P","displayLabel":"Bamboe Madani Residence","aliases":[],"disambiguatingContext":"Halte bus · Jakarta","resultKind":"TransitPlace","transitPlaceId":"place:standalone:gtfs:transjakarta:stop:B07198P","representativeLocation":{"_tag":"Placed","latitude":-6.3264,"longitude":106.8961}},{"placeId":"place:transit-ref:place:standalone:gtfs:transjakarta:stop:B00107P","displayLabel":"Bamed Health Care","aliases":[],"disambiguatingContext":"Halte bus · Jakarta","resultKind":"TransitPlace","transitPlaceId":"place:standalone:gtfs:transjakarta:stop:B00107P","representativeLocation":{"_tag":"Placed","latitude":-6.203485,"longitude":106.73102}},{"placeId":"place:transit-ref:place:standalone:gtfs:transjakarta:stop:B00108P","displayLabel":"Bandar Djakarta Bekasi","aliases":[],"disambiguatingContext":"Halte bus · Jakarta","resultKind":"TransitPlace","transitPlaceId":"place:standalone:gtfs:transjakarta:stop:B00108P","representativeLocation":{"_tag":"Placed","latitude":-6.227085,"longitude":106.99683}},{"placeId":"place:transit-ref:place:standalone:gtfs:transjakarta:stop:B08059P","displayLabel":"Bande","aliases":[],"disambiguatingContext":"Halte bus · Jakarta","resultKind":"TransitPlace","transitPlaceId":"place:standalone:gtfs:transjakarta:stop:B08059P","representativeLocation":{"_tag":"Placed","latitude":-6.119273,"longitude":106.854699}},{"placeId":"place:transit-ref:place:source:gtfs:transjakarta:stop:H00007P","displayLabel":"Bandengan","aliases":[],"disambiguatingContext":"Halte bus · Jakarta","resultKind":"TransitPlace","transitPlaceId":"place:source:gtfs:transjakarta:stop:H00007P","representativeLocation":{"_tag":"Placed","latitude":-6.136318,"longitude":106.80347}},{"placeId":"place:transit-ref:place:standalone:gtfs:transjakarta:stop:B07606P","displayLabel":"Bandengan Indah","aliases":[],"disambiguatingContext":"Halte bus · Jakarta","resultKind":"TransitPlace","transitPlaceId":"place:standalone:gtfs:transjakarta:stop:B07606P","representativeLocation":{"_tag":"Placed","latitude":-6.136777,"longitude":106.796265}},{"placeId":"place:transit-ref:place:standalone:gtfs:transjakarta:stop:B06046P","displayLabel":"Bandengan Selatan 2","aliases":[],"disambiguatingContext":"Halte bus · Jakarta","resultKind":"TransitPlace","transitPlaceId":"place:standalone:gtfs:transjakarta:stop:B06046P","representativeLocation":{"_tag":"Placed","latitude":-6.137076,"longitude":106.79632}},{"placeId":"place:transit-ref:place:standalone:gtfs:transjakarta:stop:B00109P","displayLabel":"Bangau VI","aliases":[],"disambiguatingContext":"Halte bus · Jakarta","resultKind":"TransitPlace","transitPlaceId":"place:standalone:gtfs:transjakarta:stop:B00109P","representativeLocation":{"_tag":"Placed","latitude":-6.169278,"longitude":106.84271}},{"placeId":"place:transit-ref:place:standalone:gtfs:transjakarta:stop:B08455P","displayLabel":"Banggalawa Hotel","aliases":[],"disambiguatingContext":"Halte bus · Jakarta","resultKind":"TransitPlace","transitPlaceId":"place:standalone:gtfs:transjakarta:stop:B08455P","representativeLocation":{"_tag":"Placed","latitude":-6.30326,"longitude":106.867062}},{"placeId":"place:transit-ref:place:standalone:gtfs:transjakarta:stop:B00110P","displayLabel":"Bangunan Timur 1","aliases":[],"disambiguatingContext":"Halte bus · Jakarta","resultKind":"TransitPlace","transitPlaceId":"place:standalone:gtfs:transjakarta:stop:B00110P","representativeLocation":{"_tag":"Placed","latitude":-6.189634,"longitude":106.88551}},{"placeId":"place:transit-ref:place:standalone:gtfs:transjakarta:stop:B00111P","displayLabel":"Bangunan Timur 2","aliases":[],"disambiguatingContext":"Halte bus · Jakarta","resultKind":"TransitPlace","transitPlaceId":"place:standalone:gtfs:transjakarta:stop:B00111P","representativeLocation":{"_tag":"Placed","latitude":-6.189526,"longitude":106.88571}},{"placeId":"place:transit-ref:place:standalone:gtfs:transjakarta:stop:B06550P","displayLabel":"Bank BRI Kayu Manis","aliases":[],"disambiguatingContext":"Halte bus · Jakarta","resultKind":"TransitPlace","transitPlaceId":"place:standalone:gtfs:transjakarta:stop:B06550P","representativeLocation":{"_tag":"Placed","latitude":-6.20651,"longitude":106.86232}},{"placeId":"place:transit-ref:place:standalone:gtfs:transjakarta:stop:B06887P","displayLabel":"Bank Capital Sunter","aliases":[],"disambiguatingContext":"Halte bus · Jakarta","resultKind":"TransitPlace","transitPlaceId":"place:standalone:gtfs:transjakarta:stop:B06887P","representativeLocation":{"_tag":"Placed","latitude":-6.137625,"longitude":106.871634}},{"placeId":"place:transit-ref:place:standalone:gtfs:transjakarta:stop:B00113P","displayLabel":"Bank Indonesia 2","aliases":[],"disambiguatingContext":"Halte bus · Jakarta","resultKind":"TransitPlace","transitPlaceId":"place:standalone:gtfs:transjakarta:stop:B00113P","representativeLocation":{"_tag":"Placed","latitude":-6.182667,"longitude":106.82275}},{"placeId":"place:transit-ref:place:standalone:gtfs:transjakarta:stop:B00116P","displayLabel":"Bapindo Menteng","aliases":[],"disambiguatingContext":"Halte bus · Jakarta","resultKind":"TransitPlace","transitPlaceId":"place:standalone:gtfs:transjakarta:stop:B00116P","representativeLocation":{"_tag":"Placed","latitude":-6.187095,"longitude":106.83566}},{"placeId":"place:transit-ref:place:standalone:gtfs:transjakarta:stop:B06738P","displayLabel":"Barito Park","aliases":[],"disambiguatingContext":"Halte bus · Jakarta","resultKind":"TransitPlace","transitPlaceId":"place:standalone:gtfs:transjakarta:stop:B06738P","representativeLocation":{"_tag":"Placed","latitude":-6.244906,"longitude":106.793828}},{"placeId":"place:transit-ref:place:standalone:gtfs:transjakarta:stop:B00117P","displayLabel":"Batalyon Kavaleri 1","aliases":[],"disambiguatingContext":"Halte bus · Jakarta","resultKind":"TransitPlace","transitPlaceId":"place:standalone:gtfs:transjakarta:stop:B00117P","representativeLocation":{"_tag":"Placed","latitude":-6.252806,"longitude":106.65064}},{"placeId":"place:transit-ref:place:standalone:gtfs:transjakarta:stop:B00118P","displayLabel":"Batalyon Kavaleri 2","aliases":[],"disambiguatingContext":"Halte bus · Jakarta","resultKind":"TransitPlace","transitPlaceId":"place:standalone:gtfs:transjakarta:stop:B00118P","representativeLocation":{"_tag":"Placed","latitude":-6.252704,"longitude":106.65081}},{"placeId":"place:transit-ref:place:standalone:gtfs:transjakarta:stop:B00119P","displayLabel":"Batan H Kaman","aliases":[],"disambiguatingContext":"Halte bus · Jakarta","resultKind":"TransitPlace","transitPlaceId":"place:standalone:gtfs:transjakarta:stop:B00119P","representativeLocation":{"_tag":"Placed","latitude":-6.296551,"longitude":106.77338}},{"placeId":"place:transit-ref:place:standalone:gtfs:transjakarta:stop:B00120P","displayLabel":"Baung","aliases":[],"disambiguatingContext":"Halte bus · Jakarta","resultKind":"TransitPlace","transitPlaceId":"place:standalone:gtfs:transjakarta:stop:B00120P","representativeLocation":{"_tag":"Placed","latitude":-6.302036,"longitude":106.83656}},{"placeId":"place:transit-ref:place:standalone:gtfs:transjakarta:stop:B00121P","displayLabel":"Baywalk 1","aliases":[],"disambiguatingContext":"Halte bus · Jakarta","resultKind":"TransitPlace","transitPlaceId":"place:standalone:gtfs:transjakarta:stop:B00121P","representativeLocation":{"_tag":"Placed","latitude":-6.109908,"longitude":106.77828}},{"placeId":"place:transit-ref:place:standalone:gtfs:transjakarta:stop:B00122P","displayLabel":"Baywalk 2","aliases":[],"disambiguatingContext":"Halte bus · Jakarta","resultKind":"TransitPlace","transitPlaceId":"place:standalone:gtfs:transjakarta:stop:B00122P","representativeLocation":{"_tag":"Placed","latitude":-6.110359,"longitude":106.77961}},{"placeId":"place:transit-ref:place:standalone:gtfs:transjakarta:stop:B00123P","displayLabel":"BBPK Jakarta","aliases":[],"disambiguatingContext":"Halte bus · Jakarta","resultKind":"TransitPlace","transitPlaceId":"place:standalone:gtfs:transjakarta:stop:B00123P","representativeLocation":{"_tag":"Placed","latitude":-6.302219,"longitude":106.798}},{"placeId":"place:transit-ref:place:standalone:gtfs:transjakarta:stop:B07979P","displayLabel":"Beach Pool Selatan","aliases":[],"disambiguatingContext":"Halte bus · Jakarta","resultKind":"TransitPlace","transitPlaceId":"place:standalone:gtfs:transjakarta:stop:B07979P","representativeLocation":{"_tag":"Placed","latitude":-6.120813,"longitude":106.847911}},{"placeId":"place:transit-ref:place:standalone:gtfs:transjakarta:stop:B07974P","displayLabel":"Beach Pool Utara","aliases":[],"disambiguatingContext":"Halte bus · Jakarta","resultKind":"TransitPlace","transitPlaceId":"place:standalone:gtfs:transjakarta:stop:B07974P","representativeLocation":{"_tag":"Placed","latitude":-6.12065,"longitude":106.847853}},{"placeId":"place:area:node:506083170","displayLabel":"Bekasi Barat","aliases":["BB"],"disambiguatingContext":"Lagoon · Bekasi","resultKind":"Area","representativeLocation":{"_tag":"Placed","latitude":-6.2508909,"longitude":106.985212}},{"placeId":"place:landmark:node:3469731328","displayLabel":"Bekasi Barat","aliases":["BB","Bekasi"],"disambiguatingContext":"Proyek · Bekasi","resultKind":"Landmark","representativeLocation":{"_tag":"Placed","latitude":-6.2362143,"longitude":106.9987436}},{"placeId":"place:landmark:node:8174072563","displayLabel":"Bekasi Barat","aliases":["BB"],"disambiguatingContext":"Lagoon · Daerah Khusus Ibukota Jakarta","resultKind":"Landmark","representativeLocation":{"_tag":"Placed","latitude":-6.2529489,"longitude":106.9904237}},{"placeId":"place:transit-ref:place:source:gtfs:transjakarta:stop:H00009P","displayLabel":"Bekasi Barat","aliases":[],"disambiguatingContext":"Halte bus · Jakarta","resultKind":"TransitPlace","transitPlaceId":"place:source:gtfs:transjakarta:stop:H00009P","representativeLocation":{"_tag":"Placed","latitude":-6.250045,"longitude":106.99167}},{"placeId":"place:transit-ref:place:standalone:gtfs:transjakarta:stop:B00124P","displayLabel":"Bella Terra","aliases":[],"disambiguatingContext":"Halte bus · Jakarta","resultKind":"TransitPlace","transitPlaceId":"place:standalone:gtfs:transjakarta:stop:B00124P","representativeLocation":{"_tag":"Placed","latitude":-6.175296,"longitude":106.89567}},{"placeId":"place:transit-ref:place:source:gtfs:transjakarta:stop:H00010P","displayLabel":"Bendungan Hilir","aliases":[],"disambiguatingContext":"Halte bus · Jakarta","resultKind":"TransitPlace","transitPlaceId":"place:source:gtfs:transjakarta:stop:H00010P","representativeLocation":{"_tag":"Placed","latitude":-6.217137,"longitude":106.81528}},{"placeId":"place:transit-ref:place:standalone:gtfs:transjakarta:stop:B06668P","displayLabel":"Bengkel Jln. Letjen Suprapto","aliases":[],"disambiguatingContext":"Halte bus · Jakarta","resultKind":"TransitPlace","transitPlaceId":"place:standalone:gtfs:transjakarta:stop:B06668P","representativeLocation":{"_tag":"Placed","latitude":-6.174721,"longitude":106.85362}},{"placeId":"place:transit-ref:place:standalone:gtfs:transjakarta:stop:B00125P","displayLabel":"Benhil 1","aliases":[],"disambiguatingContext":"Halte bus · Jakarta","resultKind":"TransitPlace","transitPlaceId":"place:standalone:gtfs:transjakarta:stop:B00125P","representativeLocation":{"_tag":"Placed","latitude":-6.217304,"longitude":106.8154}},{"placeId":"place:transit-ref:place:standalone:gtfs:transjakarta:stop:B00127P","displayLabel":"Benhil 3","aliases":[],"disambiguatingContext":"Halte bus · Jakarta","resultKind":"TransitPlace","transitPlaceId":"place:standalone:gtfs:transjakarta:stop:B00127P","representativeLocation":{"_tag":"Placed","latitude":-6.21601,"longitude":106.81632}},{"placeId":"place:transit-ref:place:standalone:gtfs:transjakarta:stop:B00126P","displayLabel":"Benhil PAM Jaya","aliases":[],"disambiguatingContext":"Halte bus · Jakarta","resultKind":"TransitPlace","transitPlaceId":"place:standalone:gtfs:transjakarta:stop:B00126P","representativeLocation":{"_tag":"Placed","latitude":-6.216775,"longitude":106.8154}},{"placeId":"place:transit-ref:place:standalone:gtfs:transjakarta:stop:B00128P","displayLabel":"Benteng Betawi","aliases":[],"disambiguatingContext":"Halte bus · Jakarta","resultKind":"TransitPlace","transitPlaceId":"place:standalone:gtfs:transjakarta:stop:B00128P","representativeLocation":{"_tag":"Placed","latitude":-6.174158,"longitude":106.65559}},{"placeId":"place:transit-ref:place:standalone:gtfs:transjakarta:stop:B00129P","displayLabel":"Bercabuana Sakti","aliases":[],"disambiguatingContext":"Halte bus · Jakarta","resultKind":"TransitPlace","transitPlaceId":"place:standalone:gtfs:transjakarta:stop:B00129P","representativeLocation":{"_tag":"Placed","latitude":-6.270086,"longitude":106.76549}},{"placeId":"place:transit-ref:place:source:gtfs:transjakarta:stop:H00011P","displayLabel":"Bermis","aliases":[],"disambiguatingContext":"Halte bus · Jakarta","resultKind":"TransitPlace","transitPlaceId":"place:source:gtfs:transjakarta:stop:H00011P","representativeLocation":{"_tag":"Placed","latitude":-6.178203,"longitude":106.89859}},{"placeId":"place:transit-ref:place:standalone:gtfs:transjakarta:stop:B00130P","displayLabel":"Bermis 1","aliases":[],"disambiguatingContext":"Halte bus · Jakarta","resultKind":"TransitPlace","transitPlaceId":"place:standalone:gtfs:transjakarta:stop:B00130P","representativeLocation":{"_tag":"Placed","latitude":-6.178022,"longitude":106.89853}},{"placeId":"place:transit-ref:place:standalone:gtfs:transjakarta:stop:B00131P","displayLabel":"Bermis 2","aliases":[],"disambiguatingContext":"Halte bus · Jakarta","resultKind":"TransitPlace","transitPlaceId":"place:standalone:gtfs:transjakarta:stop:B00131P","representativeLocation":{"_tag":"Placed","latitude":-6.178353,"longitude":106.89841}},{"placeId":"place:transit-ref:place:standalone:gtfs:transjakarta:stop:B00132P","displayLabel":"Beverly Tower","aliases":[],"disambiguatingContext":"Halte bus · Jakarta","resultKind":"TransitPlace","transitPlaceId":"place:standalone:gtfs:transjakarta:stop:B00132P","representativeLocation":{"_tag":"Placed","latitude":-6.291805,"longitude":106.78636}},{"placeId":"place:transit-ref:place:standalone:gtfs:transjakarta:stop:B00133P","displayLabel":"Bhayangkara 1","aliases":[],"disambiguatingContext":"Halte bus · Jakarta","resultKind":"TransitPlace","transitPlaceId":"place:standalone:gtfs:transjakarta:stop:B00133P","representativeLocation":{"_tag":"Placed","latitude":-6.236949,"longitude":106.64549}},{"placeId":"place:transit-ref:place:standalone:gtfs:transjakarta:stop:B00134P","displayLabel":"Bhayangkara 2","aliases":[],"disambiguatingContext":"Halte bus · Jakarta","resultKind":"TransitPlace","transitPlaceId":"place:standalone:gtfs:transjakarta:stop:B00134P","representativeLocation":{"_tag":"Placed","latitude":-6.236714,"longitude":106.64559}},{"placeId":"place:transit-ref:place:standalone:gtfs:transjakarta:stop:B00135P","displayLabel":"Bidan Ningsih Joglo","aliases":[],"disambiguatingContext":"Halte bus · Jakarta","resultKind":"TransitPlace","transitPlaceId":"place:standalone:gtfs:transjakarta:stop:B00135P","representativeLocation":{"_tag":"Placed","latitude":-6.216023,"longitude":106.72909}},{"placeId":"place:transit-ref:place:standalone:gtfs:transjakarta:stop:B00136P","displayLabel":"Bidara 1","aliases":[],"disambiguatingContext":"Halte bus · Jakarta","resultKind":"TransitPlace","transitPlaceId":"place:standalone:gtfs:transjakarta:stop:B00136P","representativeLocation":{"_tag":"Placed","latitude":-6.106097,"longitude":106.9595}},{"placeId":"place:transit-ref:place:standalone:gtfs:transjakarta:stop:B00137P","displayLabel":"Bidara 2","aliases":[],"disambiguatingContext":"Halte bus · Jakarta","resultKind":"TransitPlace","transitPlaceId":"place:standalone:gtfs:transjakarta:stop:B00137P","representativeLocation":{"_tag":"Placed","latitude":-6.106075,"longitude":106.95942}},{"placeId":"place:transit-ref:place:source:gtfs:transjakarta:stop:H00012P","displayLabel":"Bidara Cina","aliases":[],"disambiguatingContext":"Halte bus · Jakarta","resultKind":"TransitPlace","transitPlaceId":"place:source:gtfs:transjakarta:stop:H00012P","representativeLocation":{"_tag":"Placed","latitude":-6.229724,"longitude":106.86721}},{"placeId":"place:transit-ref:place:standalone:gtfs:transjakarta:stop:B00138P","displayLabel":"Bidara Cina 1","aliases":[],"disambiguatingContext":"Halte bus · Jakarta","resultKind":"TransitPlace","transitPlaceId":"place:standalone:gtfs:transjakarta:stop:B00138P","representativeLocation":{"_tag":"Placed","latitude":-6.22996,"longitude":106.867336}},{"placeId":"place:transit-ref:place:standalone:gtfs:transjakarta:stop:B00139P","displayLabel":"Bidara Cina 2","aliases":[],"disambiguatingContext":"Halte bus · Jakarta","resultKind":"TransitPlace","transitPlaceId":"place:standalone:gtfs:transjakarta:stop:B00139P","representativeLocation":{"_tag":"Placed","latitude":-6.22994,"longitude":106.86709}},{"placeId":"place:transit-ref:place:standalone:gtfs:transjakarta:stop:B08440P","displayLabel":"Biker Plus Joglo","aliases":[],"disambiguatingContext":"Halte bus · Jakarta","resultKind":"TransitPlace","transitPlaceId":"place:standalone:gtfs:transjakarta:stop:B08440P","representativeLocation":{"_tag":"Placed","latitude":-6.220089,"longitude":106.738724}},{"placeId":"place:transit-ref:place:standalone:gtfs:transjakarta:stop:B00140P","displayLabel":"Billy Moon","aliases":[],"disambiguatingContext":"Halte bus · Jakarta","resultKind":"TransitPlace","transitPlaceId":"place:standalone:gtfs:transjakarta:stop:B00140P","representativeLocation":{"_tag":"Placed","latitude":-6.248271,"longitude":106.93093}},{"placeId":"place:transit-ref:place:standalone:gtfs:transjakarta:stop:B00141P","displayLabel":"Billy Moon 2","aliases":[],"disambiguatingContext":"Halte bus · Jakarta","resultKind":"TransitPlace","transitPlaceId":"place:standalone:gtfs:transjakarta:stop:B00141P","representativeLocation":{"_tag":"Placed","latitude":-6.248131,"longitude":106.92944}},{"placeId":"place:transit-ref:place:standalone:gtfs:transjakarta:stop:B00142P","displayLabel":"Bimbel Calistung","aliases":[],"disambiguatingContext":"Halte bus · Jakarta","resultKind":"TransitPlace","transitPlaceId":"place:standalone:gtfs:transjakarta:stop:B00142P","representativeLocation":{"_tag":"Placed","latitude":-6.222933,"longitude":106.93901}},{"placeId":"place:transit-ref:place:standalone:gtfs:transjakarta:stop:B00144P","displayLabel":"Bintaro","aliases":[],"disambiguatingContext":"Halte bus · Jakarta","resultKind":"TransitPlace","transitPlaceId":"place:standalone:gtfs:transjakarta:stop:B00144P","representativeLocation":{"_tag":"Placed","latitude":-6.271245,"longitude":106.75133}},{"placeId":"place:transit-ref:place:standalone:gtfs:transjakarta:stop:B00145P","displayLabel":"Bintaro Gg. Masjid","aliases":[],"disambiguatingContext":"Halte bus · Jakarta","resultKind":"TransitPlace","transitPlaceId":"place:standalone:gtfs:transjakarta:stop:B00145P","representativeLocation":{"_tag":"Placed","latitude":-6.27026,"longitude":106.75217}},{"placeId":"place:transit-ref:place:standalone:gtfs:transjakarta:stop:B00146P","displayLabel":"Bintaro Kodam","aliases":[],"disambiguatingContext":"Halte bus · Jakarta","resultKind":"TransitPlace","transitPlaceId":"place:standalone:gtfs:transjakarta:stop:B00146P","representativeLocation":{"_tag":"Placed","latitude":-6.260196,"longitude":106.76594}},{"placeId":"place:transit-ref:place:standalone:gtfs:transjakarta:stop:B00147P","displayLabel":"Bintaro Park View","aliases":[],"disambiguatingContext":"Halte bus · Jakarta","resultKind":"TransitPlace","transitPlaceId":"place:standalone:gtfs:transjakarta:stop:B00147P","representativeLocation":{"_tag":"Placed","latitude":-6.257977,"longitude":106.75969}},{"placeId":"place:transit-ref:place:standalone:gtfs:transjakarta:stop:B00148P","displayLabel":"Bintaro Xchange","aliases":[],"disambiguatingContext":"Halte bus · Jakarta","resultKind":"TransitPlace","transitPlaceId":"place:standalone:gtfs:transjakarta:stop:B00148P","representativeLocation":{"_tag":"Placed","latitude":-6.286813,"longitude":106.72865}},{"placeId":"place:transit-ref:place:standalone:gtfs:transjakarta:stop:B00149P","displayLabel":"Binus Kampus Kijang","aliases":[],"disambiguatingContext":"Halte bus · Jakarta","resultKind":"TransitPlace","transitPlaceId":"place:standalone:gtfs:transjakarta:stop:B00149P","representativeLocation":{"_tag":"Placed","latitude":-6.194535,"longitude":106.78757}},{"placeId":"place:transit-ref:place:standalone:gtfs:transjakarta:stop:B00150P","displayLabel":"Binus Syahdan","aliases":[],"disambiguatingContext":"Halte bus · Jakarta","resultKind":"TransitPlace","transitPlaceId":"place:standalone:gtfs:transjakarta:stop:B00150P","representativeLocation":{"_tag":"Placed","latitude":-6.200725,"longitude":106.78472}},{"placeId":"place:transit-ref:place:standalone:gtfs:transjakarta:stop:B06899P","displayLabel":"Binus Syahdan 2","aliases":[],"disambiguatingContext":"Halte bus · Jakarta","resultKind":"TransitPlace","transitPlaceId":"place:standalone:gtfs:transjakarta:stop:B06899P","representativeLocation":{"_tag":"Placed","latitude":-6.200618,"longitude":106.785795}},{"placeId":"place:transit-ref:place:standalone:gtfs:transjakarta:stop:B00151P","displayLabel":"Binus University","aliases":[],"disambiguatingContext":"Halte bus · Jakarta","resultKind":"TransitPlace","transitPlaceId":"place:standalone:gtfs:transjakarta:stop:B00151P","representativeLocation":{"_tag":"Placed","latitude":-6.201811,"longitude":106.78265}},{"placeId":"place:transit-ref:place:standalone:gtfs:transjakarta:stop:B08588P","displayLabel":"Bizpark","aliases":[],"disambiguatingContext":"Halte bus · Jakarta","resultKind":"TransitPlace","transitPlaceId":"place:standalone:gtfs:transjakarta:stop:B08588P","representativeLocation":{"_tag":"Placed","latitude":-6.01917,"longitude":106.63659}},{"placeId":"place:transit-ref:place:standalone:gtfs:transjakarta:stop:B00152P","displayLabel":"BKKBN 1","aliases":[],"disambiguatingContext":"Halte bus · Jakarta","resultKind":"TransitPlace","transitPlaceId":"place:standalone:gtfs:transjakarta:stop:B00152P","representativeLocation":{"_tag":"Placed","latitude":-6.252902,"longitude":106.88084}},{"placeId":"place:transit-ref:place:standalone:gtfs:transjakarta:stop:B00153P","displayLabel":"BKKBN 2","aliases":[],"disambiguatingContext":"Halte bus · Jakarta","resultKind":"TransitPlace","transitPlaceId":"place:standalone:gtfs:transjakarta:stop:B00153P","representativeLocation":{"_tag":"Placed","latitude":-6.253103,"longitude":106.88108}},{"placeId":"place:transit-ref:place:standalone:gtfs:transjakarta:stop:B06984P","displayLabel":"BKKBN Sunter Utara","aliases":[],"disambiguatingContext":"Halte bus · Jakarta","resultKind":"TransitPlace","transitPlaceId":"place:standalone:gtfs:transjakarta:stop:B06984P","representativeLocation":{"_tag":"Placed","latitude":-6.139092,"longitude":106.861951}},{"placeId":"place:transit-ref:place:standalone:gtfs:transjakarta:stop:B00154P","displayLabel":"BKN 1","aliases":[],"disambiguatingContext":"Halte bus · Jakarta","resultKind":"TransitPlace","transitPlaceId":"place:standalone:gtfs:transjakarta:stop:B00154P","representativeLocation":{"_tag":"Placed","latitude":-6.258026,"longitude":106.86955}},{"placeId":"place:transit-ref:place:standalone:gtfs:transjakarta:stop:B00155P","displayLabel":"BKN 2","aliases":[],"disambiguatingContext":"Halte bus · Jakarta","resultKind":"TransitPlace","transitPlaceId":"place:standalone:gtfs:transjakarta:stop:B00155P","representativeLocation":{"_tag":"Placed","latitude":-6.258262,"longitude":106.86984}},{"placeId":"place:transit-ref:place:standalone:gtfs:transjakarta:stop:B00156P","displayLabel":"Blok A","aliases":[],"disambiguatingContext":"Halte bus · Jakarta","resultKind":"TransitPlace","transitPlaceId":"place:standalone:gtfs:transjakarta:stop:B00156P","representativeLocation":{"_tag":"Placed","latitude":-6.188462,"longitude":106.81558}},{"placeId":"place:transit-ref:place:standalone:gtfs:transjakarta:stop:B00158P","displayLabel":"Blok E","aliases":[],"disambiguatingContext":"Halte bus · Jakarta","resultKind":"TransitPlace","transitPlaceId":"place:standalone:gtfs:transjakarta:stop:B00158P","representativeLocation":{"_tag":"Placed","latitude":-6.18497,"longitude":106.81463}},{"placeId":"place:transit-ref:place:standalone:gtfs:transjakarta:stop:B00159P","displayLabel":"Blok F","aliases":[],"disambiguatingContext":"Halte bus · Jakarta","resultKind":"TransitPlace","transitPlaceId":"place:standalone:gtfs:transjakarta:stop:B00159P","representativeLocation":{"_tag":"Placed","latitude":-6.188552,"longitude":106.81249}},{"placeId":"place:transit-ref:place:source:gtfs:transjakarta:stop:H00014P","displayLabel":"Blok M","aliases":[],"disambiguatingContext":"Halte bus · Jakarta","resultKind":"TransitPlace","transitPlaceId":"place:source:gtfs:transjakarta:stop:H00014P","representativeLocation":{"_tag":"Placed","latitude":-6.243312,"longitude":106.80175}},{"placeId":"place:transit-ref:place:source:gtfs:transjakarta:stop:B06577P","displayLabel":"Blok M Jalur 2","aliases":[],"disambiguatingContext":"Halte bus · Jakarta","resultKind":"TransitPlace","transitPlaceId":"place:source:gtfs:transjakarta:stop:B06577P","representativeLocation":{"_tag":"Placed","latitude":-6.243369,"longitude":106.80188}},{"placeId":"place:transit-ref:place:standalone:gtfs:transjakarta:stop:B06578P","displayLabel":"Blok M Jalur 3","aliases":[],"disambiguatingContext":"Halte bus · Jakarta","resultKind":"TransitPlace","transitPlaceId":"place:standalone:gtfs:transjakarta:stop:B06578P","representativeLocation":{"_tag":"Placed","latitude":-6.243426,"longitude":106.80188}},{"placeId":"place:transit-ref:place:standalone:gtfs:transjakarta:stop:B06579P","displayLabel":"Blok M Jalur 4","aliases":[],"disambiguatingContext":"Halte bus · Jakarta","resultKind":"TransitPlace","transitPlaceId":"place:standalone:gtfs:transjakarta:stop:B06579P","representativeLocation":{"_tag":"Placed","latitude":-6.243474,"longitude":106.80188}},{"placeId":"place:transit-ref:place:standalone:gtfs:transjakarta:stop:B08117P","displayLabel":"Blok M Jalur 5","aliases":[],"disambiguatingContext":"Halte bus · Jakarta","resultKind":"TransitPlace","transitPlaceId":"place:standalone:gtfs:transjakarta:stop:B08117P","representativeLocation":{"_tag":"Placed","latitude":-6.24352454,"longitude":106.80187762}},{"placeId":"place:transit-ref:place:standalone:gtfs:transjakarta:stop:B08540P","displayLabel":"Blok M Jalur 6","aliases":[],"disambiguatingContext":"Halte bus · Jakarta","resultKind":"TransitPlace","transitPlaceId":"place:standalone:gtfs:transjakarta:stop:B08540P","representativeLocation":{"_tag":"Placed","latitude":-6.243573,"longitude":106.801877}},{"placeId":"place:transit-ref:place:standalone:gtfs:transjakarta:stop:B00160P","displayLabel":"Blue Gas Pulo Gebang","aliases":[],"disambiguatingContext":"Halte bus · Jakarta","resultKind":"TransitPlace","transitPlaceId":"place:standalone:gtfs:transjakarta:stop:B00160P","representativeLocation":{"_tag":"Placed","latitude":-6.210605,"longitude":106.95645}},{"placeId":"place:transit-ref:place:standalone:gtfs:transjakarta:stop:B06050P","displayLabel":"Bluegreen Office","aliases":[],"disambiguatingContext":"Halte bus · Jakarta","resultKind":"TransitPlace","transitPlaceId":"place:standalone:gtfs:transjakarta:stop:B06050P","representativeLocation":{"_tag":"Placed","latitude":-6.176874,"longitude":106.7287}},{"placeId":"place:transit-ref:place:standalone:gtfs:transjakarta:stop:B08260P","displayLabel":"BNI","aliases":[],"disambiguatingContext":"Halte bus · Jakarta","resultKind":"TransitPlace","transitPlaceId":"place:standalone:gtfs:transjakarta:stop:B08260P","representativeLocation":{"_tag":"Placed","latitude":-6.06457,"longitude":106.70019}},{"placeId":"place:transit-ref:place:standalone:gtfs:transjakarta:stop:B05944P","displayLabel":"BNI Sukapura","aliases":[],"disambiguatingContext":"Halte bus · Jakarta","resultKind":"TransitPlace","transitPlaceId":"place:standalone:gtfs:transjakarta:stop:B05944P","representativeLocation":{"_tag":"Placed","latitude":-6.142639,"longitude":106.92193}},{"placeId":"place:transit-ref:place:standalone:gtfs:transjakarta:stop:B00163P","displayLabel":"BNI Syariah","aliases":[],"disambiguatingContext":"Halte bus · Jakarta","resultKind":"TransitPlace","transitPlaceId":"place:standalone:gtfs:transjakarta:stop:B00163P","representativeLocation":{"_tag":"Placed","latitude":-6.227256,"longitude":106.83291}},{"placeId":"place:transit-ref:place:standalone:gtfs:transjakarta:stop:B06967P","displayLabel":"BNN 1","aliases":[],"disambiguatingContext":"Halte bus · Jakarta","resultKind":"TransitPlace","transitPlaceId":"place:standalone:gtfs:transjakarta:stop:B06967P","representativeLocation":{"_tag":"Placed","latitude":-6.246874,"longitude":106.873696}},{"placeId":"place:transit-ref:place:standalone:gtfs:transjakarta:stop:B07309P","displayLabel":"BNN 2","aliases":[],"disambiguatingContext":"Halte bus · Jakarta","resultKind":"TransitPlace","transitPlaceId":"place:standalone:gtfs:transjakarta:stop:B07309P","representativeLocation":{"_tag":"Placed","latitude":-6.245687,"longitude":106.871111}},{"placeId":"place:transit-ref:place:standalone:gtfs:transjakarta:stop:B06082P","displayLabel":"BNN Jakarta Utara","aliases":[],"disambiguatingContext":"Halte bus · Jakarta","resultKind":"TransitPlace","transitPlaceId":"place:standalone:gtfs:transjakarta:stop:B06082P","representativeLocation":{"_tag":"Placed","latitude":-6.132871,"longitude":106.86411}},{"placeId":"place:transit-ref:place:standalone:gtfs:transjakarta:stop:B06238P","displayLabel":"Bogasari","aliases":[],"disambiguatingContext":"Halte bus · Jakarta","resultKind":"TransitPlace","transitPlaceId":"place:standalone:gtfs:transjakarta:stop:B06238P","representativeLocation":{"_tag":"Placed","latitude":-6.108568,"longitude":106.90968}},{"placeId":"place:transit-ref:place:standalone:gtfs:transjakarta:stop:B00164P","displayLabel":"Bona Indah Plaza","aliases":[],"disambiguatingContext":"Halte bus · Jakarta","resultKind":"TransitPlace","transitPlaceId":"place:standalone:gtfs:transjakarta:stop:B00164P","representativeLocation":{"_tag":"Placed","latitude":-6.301283,"longitude":106.78084}},{"placeId":"place:transit-ref:place:standalone:gtfs:transjakarta:stop:B00165P","displayLabel":"Bongkaran Tanah Abang","aliases":[],"disambiguatingContext":"Halte bus · Jakarta","resultKind":"TransitPlace","transitPlaceId":"place:standalone:gtfs:transjakarta:stop:B00165P","representativeLocation":{"_tag":"Placed","latitude":-6.189421,"longitude":106.81159}},{"placeId":"place:transit-ref:place:standalone:gtfs:transjakarta:stop:B08181P","displayLabel":"Botani Square","aliases":[],"disambiguatingContext":"Halte bus · Jakarta","resultKind":"TransitPlace","transitPlaceId":"place:standalone:gtfs:transjakarta:stop:B08181P","representativeLocation":{"_tag":"Placed","latitude":-6.601931,"longitude":106.806343}},{"placeId":"place:transit-ref:place:standalone:gtfs:transjakarta:stop:B08546P","displayLabel":"Boulevard Arcade","aliases":[],"disambiguatingContext":"Halte bus · Jakarta","resultKind":"TransitPlace","transitPlaceId":"place:standalone:gtfs:transjakarta:stop:B08546P","representativeLocation":{"_tag":"Placed","latitude":-6.30034,"longitude":107.15268}},{"placeId":"place:transit-ref:place:standalone:gtfs:transjakarta:stop:B00166P","displayLabel":"Boulevard Bukit Gading Raya","aliases":[],"disambiguatingContext":"Halte bus · Jakarta","resultKind":"TransitPlace","transitPlaceId":"place:standalone:gtfs:transjakarta:stop:B00166P","representativeLocation":{"_tag":"Placed","latitude":-6.15515,"longitude":106.89579}},{"placeId":"place:transit-ref:place:standalone:gtfs:transjakarta:stop:B00167P","displayLabel":"Boulevard Hijau THB","aliases":[],"disambiguatingContext":"Halte bus · Jakarta","resultKind":"TransitPlace","transitPlaceId":"place:standalone:gtfs:transjakarta:stop:B00167P","representativeLocation":{"_tag":"Placed","latitude":-6.183321,"longitude":106.98406}},{"placeId":"place:transit-ref:place:standalone:gtfs:transjakarta:stop:B00168P","displayLabel":"Boulevard Inspeksi Kali Sunter","aliases":[],"disambiguatingContext":"Halte bus · Jakarta","resultKind":"TransitPlace","transitPlaceId":"place:standalone:gtfs:transjakarta:stop:B00168P","representativeLocation":{"_tag":"Placed","latitude":-6.151094,"longitude":106.88901}},{"placeId":"place:transit-ref:place:standalone:gtfs:transjakarta:stop:B00169P","displayLabel":"Boulevard Janur Elok Raya 1","aliases":[],"disambiguatingContext":"Halte bus · Jakarta","resultKind":"TransitPlace","transitPlaceId":"place:standalone:gtfs:transjakarta:stop:B00169P","representativeLocation":{"_tag":"Placed","latitude":-6.150581,"longitude":106.90954}},{"placeId":"place:transit-ref:place:standalone:gtfs:transjakarta:stop:B00170P","displayLabel":"Boulevard Janur Elok Raya 2","aliases":[],"disambiguatingContext":"Halte bus · Jakarta","resultKind":"TransitPlace","transitPlaceId":"place:standalone:gtfs:transjakarta:stop:B00170P","representativeLocation":{"_tag":"Placed","latitude":-6.150553,"longitude":106.90922}},{"placeId":"place:transit-ref:place:standalone:gtfs:transjakarta:stop:B00171P","displayLabel":"Boulevard Kelapa Cengkir Raya","aliases":[],"disambiguatingContext":"Halte bus · Jakarta","resultKind":"TransitPlace","transitPlaceId":"place:standalone:gtfs:transjakarta:stop:B00171P","representativeLocation":{"_tag":"Placed","latitude":-6.165966,"longitude":106.90211}},{"placeId":"place:transit-ref:place:standalone:gtfs:transjakarta:stop:B00172P","displayLabel":"Boulevard Kelapa Hybrida Raya 1","aliases":[],"disambiguatingContext":"Halte bus · Jakarta","resultKind":"TransitPlace","transitPlaceId":"place:standalone:gtfs:transjakarta:stop:B00172P","representativeLocation":{"_tag":"Placed","latitude":-6.148453,"longitude":106.90965}},{"placeId":"place:transit-ref:place:standalone:gtfs:transjakarta:stop:B00173P","displayLabel":"Boulevard Kelapa Hybrida Raya 2","aliases":[],"disambiguatingContext":"Halte bus · Jakarta","resultKind":"TransitPlace","transitPlaceId":"place:standalone:gtfs:transjakarta:stop:B00173P","representativeLocation":{"_tag":"Placed","latitude":-6.148396,"longitude":106.90935}},{"placeId":"place:transit-ref:place:standalone:gtfs:transjakarta:stop:B00174P","displayLabel":"Boulevard Pelepah Raya","aliases":[],"disambiguatingContext":"Halte bus · Jakarta","resultKind":"TransitPlace","transitPlaceId":"place:standalone:gtfs:transjakarta:stop:B00174P","representativeLocation":{"_tag":"Placed","latitude":-6.159256,"longitude":106.90317}},{"placeId":"place:transit-ref:place:standalone:gtfs:transjakarta:stop:B00175P","displayLabel":"BP3IP Sunter","aliases":[],"disambiguatingContext":"Halte bus · Jakarta","resultKind":"TransitPlace","transitPlaceId":"place:standalone:gtfs:transjakarta:stop:B00175P","representativeLocation":{"_tag":"Placed","latitude":-6.137721,"longitude":106.875825}},{"placeId":"place:transit-ref:place:standalone:gtfs:transjakarta:stop:B00176P","displayLabel":"BPHN","aliases":[],"disambiguatingContext":"Halte bus · Jakarta","resultKind":"TransitPlace","transitPlaceId":"place:standalone:gtfs:transjakarta:stop:B00176P","representativeLocation":{"_tag":"Placed","latitude":-6.259724,"longitude":106.86834}},{"placeId":"place:transit-ref:place:standalone:gtfs:transjakarta:stop:B00177P","displayLabel":"BPJS Jaksel","aliases":[],"disambiguatingContext":"Halte bus · Jakarta","resultKind":"TransitPlace","transitPlaceId":"place:standalone:gtfs:transjakarta:stop:B00177P","representativeLocation":{"_tag":"Placed","latitude":-6.249682,"longitude":106.84318}},{"placeId":"place:transit-ref:place:standalone:gtfs:transjakarta:stop:B00178P","displayLabel":"BPJS Kesehatan Sultan Hasanudin","aliases":[],"disambiguatingContext":"Halte bus · Jakarta","resultKind":"TransitPlace","transitPlaceId":"place:standalone:gtfs:transjakarta:stop:B00178P","representativeLocation":{"_tag":"Placed","latitude":-6.242517,"longitude":106.80229}},{"placeId":"place:transit-ref:place:standalone:gtfs:transjakarta:stop:B00179P","displayLabel":"BPJS Ketenagakerjaan Marunda","aliases":[],"disambiguatingContext":"Halte bus · Jakarta","resultKind":"TransitPlace","transitPlaceId":"place:standalone:gtfs:transjakarta:stop:B00179P","representativeLocation":{"_tag":"Placed","latitude":-6.104983,"longitude":106.93254}},{"placeId":"place:transit-ref:place:standalone:gtfs:transjakarta:stop:B00180P","displayLabel":"BPK Penabur Kelapa Gading","aliases":[],"disambiguatingContext":"Halte bus · Jakarta","resultKind":"TransitPlace","transitPlaceId":"place:standalone:gtfs:transjakarta:stop:B00180P","representativeLocation":{"_tag":"Placed","latitude":-6.147463,"longitude":106.90796}},{"placeId":"place:transit-ref:place:standalone:gtfs:transjakarta:stop:B06449P","displayLabel":"BPOM","aliases":[],"disambiguatingContext":"Halte bus · Jakarta","resultKind":"TransitPlace","transitPlaceId":"place:standalone:gtfs:transjakarta:stop:B06449P","representativeLocation":{"_tag":"Placed","latitude":-6.189488,"longitude":106.859405}},{"placeId":"place:transit-ref:place:standalone:gtfs:transjakarta:stop:B06129P","displayLabel":"BPPK Jakarta","aliases":[],"disambiguatingContext":"Halte bus · Jakarta","resultKind":"TransitPlace","transitPlaceId":"place:standalone:gtfs:transjakarta:stop:B06129P","representativeLocation":{"_tag":"Placed","latitude":-6.189843,"longitude":106.858846}},{"placeId":"place:transit-ref:place:standalone:gtfs:transjakarta:stop:B00183P","displayLabel":"BRI Jakarta Kota","aliases":[],"disambiguatingContext":"Halte bus · Jakarta","resultKind":"TransitPlace","transitPlaceId":"place:standalone:gtfs:transjakarta:stop:B00183P","representativeLocation":{"_tag":"Placed","latitude":-6.135104,"longitude":106.80752}},{"placeId":"place:transit-ref:place:standalone:gtfs:transjakarta:stop:B00184P","displayLabel":"BRI Menteng","aliases":[],"disambiguatingContext":"Halte bus · Jakarta","resultKind":"TransitPlace","transitPlaceId":"place:standalone:gtfs:transjakarta:stop:B00184P","representativeLocation":{"_tag":"Placed","latitude":-6.186792,"longitude":106.83514}},{"placeId":"place:transit-ref:place:standalone:gtfs:transjakarta:stop:B00185P","displayLabel":"Brimob Pejaten Barat 2","aliases":[],"disambiguatingContext":"Halte bus · Jakarta","resultKind":"TransitPlace","transitPlaceId":"place:standalone:gtfs:transjakarta:stop:B00185P","representativeLocation":{"_tag":"Placed","latitude":-6.270925,"longitude":106.84644}},{"placeId":"place:transit-ref:place:standalone:gtfs:transjakarta:stop:B07884P","displayLabel":"BS Puri Beta 2","aliases":[],"disambiguatingContext":"Halte bus · Jakarta","resultKind":"TransitPlace","transitPlaceId":"place:standalone:gtfs:transjakarta:stop:B07884P","representativeLocation":{"_tag":"Placed","latitude":-6.230588,"longitude":106.723795}},{"placeId":"place:transit-ref:place:standalone:gtfs:transjakarta:stop:B00186P","displayLabel":"BSD City 1","aliases":[],"disambiguatingContext":"Halte bus · Jakarta","resultKind":"TransitPlace","transitPlaceId":"place:standalone:gtfs:transjakarta:stop:B00186P","representativeLocation":{"_tag":"Placed","latitude":-6.299429,"longitude":106.666678}},{"placeId":"place:transit-ref:place:standalone:gtfs:transjakarta:stop:B00188P","displayLabel":"BSD Plaza 1","aliases":[],"disambiguatingContext":"Halte bus · Jakarta","resultKind":"TransitPlace","transitPlaceId":"place:standalone:gtfs:transjakarta:stop:B00188P","representativeLocation":{"_tag":"Placed","latitude":-6.278263,"longitude":106.66103}},{"placeId":"place:transit-ref:place:standalone:gtfs:transjakarta:stop:B00189P","displayLabel":"BSD Plaza 2","aliases":[],"disambiguatingContext":"Halte bus · Jakarta","resultKind":"TransitPlace","transitPlaceId":"place:standalone:gtfs:transjakarta:stop:B00189P","representativeLocation":{"_tag":"Placed","latitude":-6.280847,"longitude":106.66305}},{"placeId":"place:transit-ref:place:standalone:gtfs:transjakarta:stop:B00190P","displayLabel":"BSI 1","aliases":[],"disambiguatingContext":"Halte bus · Jakarta","resultKind":"TransitPlace","transitPlaceId":"place:standalone:gtfs:transjakarta:stop:B00190P","representativeLocation":{"_tag":"Placed","latitude":-6.237724,"longitude":106.76225}},{"placeId":"place:transit-ref:place:standalone:gtfs:transjakarta:stop:B00191P","displayLabel":"BSI 2","aliases":[],"disambiguatingContext":"Halte bus · Jakarta","resultKind":"TransitPlace","transitPlaceId":"place:standalone:gtfs:transjakarta:stop:B00191P","representativeLocation":{"_tag":"Placed","latitude":-6.237609,"longitude":106.76252}},{"placeId":"place:transit-ref:place:standalone:gtfs:transjakarta:stop:B00192P","displayLabel":"BSI Cengkareng","aliases":[],"disambiguatingContext":"Halte bus · Jakarta","resultKind":"TransitPlace","transitPlaceId":"place:standalone:gtfs:transjakarta:stop:B00192P","representativeLocation":{"_tag":"Placed","latitude":-6.147973,"longitude":106.72781}},{"placeId":"place:transit-ref:place:standalone:gtfs:transjakarta:stop:B07550P","displayLabel":"BTC 1","aliases":[],"disambiguatingContext":"Halte bus · Jakarta","resultKind":"TransitPlace","transitPlaceId":"place:standalone:gtfs:transjakarta:stop:B07550P","representativeLocation":{"_tag":"Placed","latitude":-6.258214,"longitude":107.0207294}},{"placeId":"place:transit-ref:place:standalone:gtfs:transjakarta:stop:B00194P","displayLabel":"BTC 2","aliases":[],"disambiguatingContext":"Halte bus · Jakarta","resultKind":"TransitPlace","transitPlaceId":"place:standalone:gtfs:transjakarta:stop:B00194P","representativeLocation":{"_tag":"Placed","latitude":-6.258258,"longitude":107.0206}},{"placeId":"place:transit-ref:place:source:gtfs:transjakarta:stop:H00017P","displayLabel":"Buaran","aliases":[],"disambiguatingContext":"Halte bus · Jakarta","resultKind":"TransitPlace","transitPlaceId":"place:source:gtfs:transjakarta:stop:H00017P","representativeLocation":{"_tag":"Placed","latitude":-6.215132,"longitude":106.91768}},{"placeId":"place:transit-ref:place:standalone:gtfs:transjakarta:stop:B00195P","displayLabel":"Buaran Plaza","aliases":[],"disambiguatingContext":"Halte bus · Jakarta","resultKind":"TransitPlace","transitPlaceId":"place:standalone:gtfs:transjakarta:stop:B00195P","representativeLocation":{"_tag":"Placed","latitude":-6.217983,"longitude":106.9235}},{"placeId":"place:transit-ref:place:standalone:gtfs:transjakarta:stop:B00196P","displayLabel":"Buaran Raya","aliases":[],"disambiguatingContext":"Halte bus · Jakarta","resultKind":"TransitPlace","transitPlaceId":"place:standalone:gtfs:transjakarta:stop:B00196P","representativeLocation":{"_tag":"Placed","latitude":-6.220456,"longitude":106.92176}},{"placeId":"place:transit-ref:place:standalone:gtfs:transjakarta:stop:B08341P","displayLabel":"Buaran Raya 2","aliases":[],"disambiguatingContext":"Halte bus · Jakarta","resultKind":"TransitPlace","transitPlaceId":"place:standalone:gtfs:transjakarta:stop:B08341P","representativeLocation":{"_tag":"Placed","latitude":-6.22051,"longitude":106.92268}},{"placeId":"place:transit-ref:place:standalone:gtfs:transjakarta:stop:B00197P","displayLabel":"Buddha Tzu Chi","aliases":[],"disambiguatingContext":"Halte bus · Jakarta","resultKind":"TransitPlace","transitPlaceId":"place:standalone:gtfs:transjakarta:stop:B00197P","representativeLocation":{"_tag":"Placed","latitude":-6.107998,"longitude":106.73942}},{"placeId":"place:transit-ref:place:standalone:gtfs:transjakarta:stop:B00198P","displayLabel":"Budhaya Santo Agustinus","aliases":[],"disambiguatingContext":"Halte bus · Jakarta","resultKind":"TransitPlace","transitPlaceId":"place:standalone:gtfs:transjakarta:stop:B00198P","representativeLocation":{"_tag":"Placed","latitude":-6.220866,"longitude":106.92346}},{"placeId":"place:transit-ref:place:standalone:gtfs:transjakarta:stop:B00199P","displayLabel":"Budhi Medika Meruya Utara","aliases":[],"disambiguatingContext":"Halte bus · Jakarta","resultKind":"TransitPlace","transitPlaceId":"place:standalone:gtfs:transjakarta:stop:B00199P","representativeLocation":{"_tag":"Placed","latitude":-6.196934,"longitude":106.73231}},{"placeId":"place:transit-ref:place:standalone:gtfs:transjakarta:stop:B00200P","displayLabel":"Budi Kemulyaan","aliases":[],"disambiguatingContext":"Halte bus · Jakarta","resultKind":"TransitPlace","transitPlaceId":"place:standalone:gtfs:transjakarta:stop:B00200P","representativeLocation":{"_tag":"Placed","latitude":-6.180223,"longitude":106.8178}},{"placeId":"place:transit-ref:place:standalone:gtfs:transjakarta:stop:B05969P","displayLabel":"Budi Mulia 1","aliases":[],"disambiguatingContext":"Halte bus · Jakarta","resultKind":"TransitPlace","transitPlaceId":"place:standalone:gtfs:transjakarta:stop:B05969P","representativeLocation":{"_tag":"Placed","latitude":-6.13078,"longitude":106.842}},{"placeId":"place:transit-ref:place:standalone:gtfs:transjakarta:stop:B05968P","displayLabel":"Budi Mulia 2","aliases":[],"disambiguatingContext":"Halte bus · Jakarta","resultKind":"TransitPlace","transitPlaceId":"place:standalone:gtfs:transjakarta:stop:B05968P","representativeLocation":{"_tag":"Placed","latitude":-6.13074,"longitude":106.84195}},{"placeId":"place:transit-ref:place:standalone:gtfs:transjakarta:stop:B00201P","displayLabel":"Budiwarman 1","aliases":[],"disambiguatingContext":"Halte bus · Jakarta","resultKind":"TransitPlace","transitPlaceId":"place:standalone:gtfs:transjakarta:stop:B00201P","representativeLocation":{"_tag":"Placed","latitude":-6.279071,"longitude":106.87019}},{"placeId":"place:transit-ref:place:standalone:gtfs:transjakarta:stop:B00202P","displayLabel":"Budiwarman 2","aliases":[],"disambiguatingContext":"Halte bus · Jakarta","resultKind":"TransitPlace","transitPlaceId":"place:standalone:gtfs:transjakarta:stop:B00202P","representativeLocation":{"_tag":"Placed","latitude":-6.279048,"longitude":106.870363}},{"placeId":"place:transit-ref:place:standalone:gtfs:transjakarta:stop:B06532P","displayLabel":"Bujana Tirta","aliases":[],"disambiguatingContext":"Halte bus · Jakarta","resultKind":"TransitPlace","transitPlaceId":"place:standalone:gtfs:transjakarta:stop:B06532P","representativeLocation":{"_tag":"Placed","latitude":-6.20385,"longitude":106.878636}},{"placeId":"place:transit-ref:place:standalone:gtfs:transjakarta:stop:B00205P","displayLabel":"Bukit Duri","aliases":[],"disambiguatingContext":"Halte bus · Jakarta","resultKind":"TransitPlace","transitPlaceId":"place:standalone:gtfs:transjakarta:stop:B00205P","representativeLocation":{"_tag":"Placed","latitude":-6.21551,"longitude":106.86293}},{"placeId":"place:transit-ref:place:standalone:gtfs:transjakarta:stop:B07549P","displayLabel":"Bulak Kapal 3","aliases":[],"disambiguatingContext":"Halte bus · Jakarta","resultKind":"TransitPlace","transitPlaceId":"place:standalone:gtfs:transjakarta:stop:B07549P","representativeLocation":{"_tag":"Placed","latitude":-6.250708,"longitude":107.02395}},{"placeId":"place:transit-ref:place:standalone:gtfs:transjakarta:stop:B07552P","displayLabel":"Bulak Kapal 4","aliases":[],"disambiguatingContext":"Halte bus · Jakarta","resultKind":"TransitPlace","transitPlaceId":"place:standalone:gtfs:transjakarta:stop:B07552P","representativeLocation":{"_tag":"Placed","latitude":-6.251121,"longitude":107.02366}},{"placeId":"place:transit-ref:place:standalone:gtfs:transjakarta:stop:B00206P","displayLabel":"Bulak Rantai","aliases":[],"disambiguatingContext":"Halte bus · Jakarta","resultKind":"TransitPlace","transitPlaceId":"place:standalone:gtfs:transjakarta:stop:B00206P","representativeLocation":{"_tag":"Placed","latitude":-6.284664,"longitude":106.87123}},{"placeId":"place:transit-ref:place:standalone:gtfs:transjakarta:stop:B00207P","displayLabel":"Bulak Turi","aliases":[],"disambiguatingContext":"Halte bus · Jakarta","resultKind":"TransitPlace","transitPlaceId":"place:standalone:gtfs:transjakarta:stop:B00207P","representativeLocation":{"_tag":"Placed","latitude":-6.104952,"longitude":106.97016}},{"placeId":"place:transit-ref:place:standalone:gtfs:transjakarta:stop:B00208P","displayLabel":"Bulak Turi 2","aliases":[],"disambiguatingContext":"Halte bus · Jakarta","resultKind":"TransitPlace","transitPlaceId":"place:standalone:gtfs:transjakarta:stop:B00208P","representativeLocation":{"_tag":"Placed","latitude":-6.105145,"longitude":106.97009}},{"placeId":"place:transit-ref:place:standalone:gtfs:transjakarta:stop:B00209P","displayLabel":"Bulog","aliases":[],"disambiguatingContext":"Halte bus · Jakarta","resultKind":"TransitPlace","transitPlaceId":"place:standalone:gtfs:transjakarta:stop:B00209P","representativeLocation":{"_tag":"Placed","latitude":-6.237665,"longitude":106.82917}},{"placeId":"place:transit-ref:place:standalone:gtfs:transjakarta:stop:B00211P","displayLabel":"Bumi Jatiwaringin","aliases":[],"disambiguatingContext":"Halte bus · Jakarta","resultKind":"TransitPlace","transitPlaceId":"place:standalone:gtfs:transjakarta:stop:B00211P","representativeLocation":{"_tag":"Placed","latitude":-6.275283,"longitude":106.91282}},{"placeId":"place:transit-ref:place:standalone:gtfs:transjakarta:stop:B06763P","displayLabel":"Bumi Malaka 2","aliases":[],"disambiguatingContext":"Halte bus · Jakarta","resultKind":"TransitPlace","transitPlaceId":"place:standalone:gtfs:transjakarta:stop:B06763P","representativeLocation":{"_tag":"Placed","latitude":-6.22049,"longitude":106.92543}},{"placeId":"place:transit-ref:place:standalone:gtfs:transjakarta:stop:B00213P","displayLabel":"Bumi Perkemahan Ragunan","aliases":[],"disambiguatingContext":"Halte bus · Jakarta","resultKind":"TransitPlace","transitPlaceId":"place:standalone:gtfs:transjakarta:stop:B00213P","representativeLocation":{"_tag":"Placed","latitude":-6.295825,"longitude":106.82153}},{"placeId":"place:transit-ref:place:standalone:gtfs:transjakarta:stop:B00214P","displayLabel":"Bumiputera","aliases":[],"disambiguatingContext":"Halte bus · Jakarta","resultKind":"TransitPlace","transitPlaceId":"place:standalone:gtfs:transjakarta:stop:B00214P","representativeLocation":{"_tag":"Placed","latitude":-6.206839,"longitude":106.82234}},{"placeId":"place:transit-ref:place:source:gtfs:transjakarta:stop:H00021P","displayLabel":"Buncit Indah","aliases":[],"disambiguatingContext":"Halte bus · Jakarta","resultKind":"TransitPlace","transitPlaceId":"place:source:gtfs:transjakarta:stop:H00021P","representativeLocation":{"_tag":"Placed","latitude":-6.274333,"longitude":106.83029}},{"placeId":"place:transit-ref:place:standalone:gtfs:transjakarta:stop:B06632P","displayLabel":"Buncit Indah 2","aliases":[],"disambiguatingContext":"Halte bus · Jakarta","resultKind":"TransitPlace","transitPlaceId":"place:standalone:gtfs:transjakarta:stop:B06632P","representativeLocation":{"_tag":"Placed","latitude":-6.274071,"longitude":106.83047}},{"placeId":"place:transit-ref:place:standalone:gtfs:transjakarta:stop:B00215P","displayLabel":"Bunda Hati Kudus Jelambar","aliases":[],"disambiguatingContext":"Halte bus · Jakarta","resultKind":"TransitPlace","transitPlaceId":"place:standalone:gtfs:transjakarta:stop:B00215P","representativeLocation":{"_tag":"Placed","latitude":-6.165552,"longitude":106.78484}},{"placeId":"place:transit-ref:place:standalone:gtfs:transjakarta:stop:B00216P","displayLabel":"Bundaran Alam Sutera 1","aliases":[],"disambiguatingContext":"Halte bus · Jakarta","resultKind":"TransitPlace","transitPlaceId":"place:standalone:gtfs:transjakarta:stop:B00216P","representativeLocation":{"_tag":"Placed","latitude":-6.244107,"longitude":106.64889}},{"placeId":"place:transit-ref:place:standalone:gtfs:transjakarta:stop:B00217P","displayLabel":"Bundaran Alam Sutera 2","aliases":[],"disambiguatingContext":"Halte bus · Jakarta","resultKind":"TransitPlace","transitPlaceId":"place:standalone:gtfs:transjakarta:stop:B00217P","representativeLocation":{"_tag":"Placed","latitude":-6.243905,"longitude":106.64901}},{"placeId":"place:transit-ref:place:standalone:gtfs:transjakarta:stop:B06956P","displayLabel":"Bundaran Cargo","aliases":[],"disambiguatingContext":"Halte bus · Jakarta","resultKind":"TransitPlace","transitPlaceId":"place:standalone:gtfs:transjakarta:stop:B06956P","representativeLocation":{"_tag":"Placed","latitude":-6.122768,"longitude":106.662274}},{"placeId":"place:transit-ref:place:standalone:gtfs:transjakarta:stop:B00218P","displayLabel":"Bundaran Cipinang Kebembem","aliases":[],"disambiguatingContext":"Halte bus · Jakarta","resultKind":"TransitPlace","transitPlaceId":"place:standalone:gtfs:transjakarta:stop:B00218P","representativeLocation":{"_tag":"Placed","latitude":-6.211974,"longitude":106.88891}},{"placeId":"place:transit-ref:place:standalone:gtfs:transjakarta:stop:B00219P","displayLabel":"Bundaran Harapan Indah","aliases":[],"disambiguatingContext":"Halte bus · Jakarta","resultKind":"TransitPlace","transitPlaceId":"place:standalone:gtfs:transjakarta:stop:B00219P","representativeLocation":{"_tag":"Placed","latitude":-6.183719,"longitude":106.97727}},{"placeId":"place:transit-ref:place:source:gtfs:transjakarta:stop:H00022P","displayLabel":"Bundaran HI Astra","aliases":[],"disambiguatingContext":"Halte bus · Jakarta","resultKind":"TransitPlace","transitPlaceId":"place:source:gtfs:transjakarta:stop:H00022P","representativeLocation":{"_tag":"Placed","latitude":-6.193021,"longitude":106.823}},{"placeId":"place:transit-ref:place:standalone:gtfs:transjakarta:stop:B07629P","displayLabel":"Bundaran JIEP 1","aliases":[],"disambiguatingContext":"Halte bus · Jakarta","resultKind":"TransitPlace","transitPlaceId":"place:standalone:gtfs:transjakarta:stop:B07629P","representativeLocation":{"_tag":"Placed","latitude":-6.20129,"longitude":106.917658}},{"placeId":"place:transit-ref:place:standalone:gtfs:transjakarta:stop:B07620P","displayLabel":"Bundaran JIEP 2","aliases":[],"disambiguatingContext":"Halte bus · Jakarta","resultKind":"TransitPlace","transitPlaceId":"place:standalone:gtfs:transjakarta:stop:B07620P","representativeLocation":{"_tag":"Placed","latitude":-6.201342,"longitude":106.917438}},{"placeId":"place:transit-ref:place:standalone:gtfs:transjakarta:stop:B07439P","displayLabel":"Bundaran Jln. Kemang Selatan 1","aliases":[],"disambiguatingContext":"Halte bus · Jakarta","resultKind":"TransitPlace","transitPlaceId":"place:standalone:gtfs:transjakarta:stop:B07439P","representativeLocation":{"_tag":"Placed","latitude":-6.272955,"longitude":106.813396}},{"placeId":"place:transit-ref:place:standalone:gtfs:transjakarta:stop:B07394P","displayLabel":"Bundaran Jln. Kemang Selatan 2","aliases":[],"disambiguatingContext":"Halte bus · Jakarta","resultKind":"TransitPlace","transitPlaceId":"place:standalone:gtfs:transjakarta:stop:B07394P","representativeLocation":{"_tag":"Placed","latitude":-6.273125,"longitude":106.81333}},